[
    {"value":"134","name":"Bordeaux","storeAddress":{"address":"BORDEAUX-LAC","displayAddress":"AVENUE DES 40 JOURNAUX, BORDEAUX-LAC","position":{"formattedAddress":"Av. des 40 Journaux, 33300 Bordeaux, France","latitude":44.878928,"longitude":-0.5684663,"extra":{"googlePlaceId":"ChIJ_ZdY4FAoVQ0ReDlPy_k6zaE","confidence":0.7,"premise":null,"subpremise":null,"neighborhood":"Bordeaux","establishment":null},"administrativeLevels":{"level2long":"Gironde","level2short":"Gironde","level1long":"Nouvelle-Aquitaine","level1short":"Nouvelle-Aquitaine"},"streetName":"Avenue des 40 Journaux","city":"Bordeaux","country":"France","countryCode":"FR","zipcode":"33300","provider":"google"}}},
    {"value":"242","name":"Roques","storeAddress":{"address":"Roques SUR GARONNE","displayAddress":"9 ALLEE DE FRAIXINET, Roques SUR GARONNE","position":{"formattedAddress":"9 All. de Fraixinet, 31120 Roques, France","latitude":43.512484,"longitude":1.3695679,"extra":{"googlePlaceId":"ChIJM93nEyu4rhIRzMNttn6UpbM","confidence":1,"premise":null,"subpremise":null,"neighborhood":"Roques","establishment":null},"administrativeLevels":{"level2long":"Haute-Garonne","level2short":"Haute-Garonne","level1long":"Occitanie","level1short":"Occitanie"},"streetNumber":"9","streetName":"Allée de Fraixinet","city":"Roques","country":"France","countryCode":"FR","zipcode":"31120","provider":"google"}}},
    {"value":"518","name":"Nice St. Isidore","storePageUrl":"https://www.ikea.com/fr/fr/stores/nice-saint-isidore/","storeAddress":{"address":"NICE","displayAddress":"AVENUE PIERRE DE COUBERTIN, NICE","position":{"formattedAddress":"Av. Pierre de Coubertin, 06200 Nice, France","latitude":43.7078198,"longitude":7.1958257,"extra":{"googlePlaceId":"ChIJ_dSKLeTRzRIRXd4XMfV3FIQ","confidence":0.7,"premise":null,"subpremise":null,"neighborhood":"Nice","establishment":null},"administrativeLevels":{"level2long":"Alpes-Maritimes","level2short":"Alpes-Maritimes","level1long":"Provence-Alpes-Côte d'Azur","level1short":"Provence-Alpes-Côte d'Azur"},"streetName":"Avenue Pierre de Coubertin","city":"Nice","country":"France","countryCode":"FR","zipcode":"06200","provider":"google"}}},
    {"value":"310","name":"Bayonne","storeAddress":{"address":"SAINT PIERRE D'IRUBE","displayAddress":"2-4 Avenue du Pourtou, SAINT PIERRE D'IRUBE","position":{"formattedAddress":"2-4 Av. du Portou, 64990 Saint-Pierre-d'Irube, France","latitude":43.4805369,"longitude":-1.4442137,"extra":{"googlePlaceId":"ChIJeZArN1NHUQ0RmL3FFjknpaI","confidence":1,"premise":null,"subpremise":null,"neighborhood":"Saint-Pierre-d'Irube","establishment":null},"administrativeLevels":{"level2long":"Pyrénées-Atlantiques","level2short":"Pyrénées-Atlantiques","level1long":"Nouvelle-Aquitaine","level1short":"Nouvelle-Aquitaine"},"streetNumber":"2-4","streetName":"Avenue du Portou","city":"Saint-Pierre-d'Irube","country":"France","countryCode":"FR","zipcode":"64990","provider":"google"}}},
    {"value":"562","name":"Lyon - Grand Parilly","storeAddress":{"address":"VENISSIEUX","displayAddress":"9 rue Simone VEIL, VENISSIEUX","position":{"formattedAddress":"9 Rue Simone Veil, 69200 Vénissieux, France","latitude":45.718081,"longitude":4.881299,"extra":{"googlePlaceId":"ChIJeyxKZxnC9EcRH4OqcRxkfMk","confidence":1,"premise":null,"subpremise":null,"neighborhood":"Vénissieux","establishment":null},"administrativeLevels":{"level2long":"Rhône","level2short":"Rhône","level1long":"Auvergne-Rhône-Alpes","level1short":"Auvergne-Rhône-Alpes"},"streetNumber":"9","streetName":"Rue Simone Veil","city":"Vénissieux","country":"France","countryCode":"FR","zipcode":"69200","provider":"google"}}},
    {"value":"082","name":"Evry","storeAddress":{"address":"EVRY","displayAddress":"LE CLOS AUX POIS - LISSE, EVRY","position":{"formattedAddress":"Rue du Clos aux Pois, Lisses, France","latitude":48.5969574,"longitude":2.4382333,"extra":{"googlePlaceId":"EiRSdWUgZHUgQ2xvcyBhdXggUG9pcywgTGlzc2VzLCBGcmFuY2UiLiosChQKEglzjnrAXuflRxFCx8w9Y3hgXRIUChIJwaGpI_Hd5UcRTPtR_nkmCBc","confidence":0.7,"premise":null,"subpremise":null,"neighborhood":"Lisses","establishment":null},"administrativeLevels":{"level2long":"Essonne","level2short":"Essonne","level1long":"Île-de-France","level1short":"IDF"},"streetName":"Rue du Clos aux Pois","city":"Lisses","country":"France","countryCode":"FR","provider":"google"}}},
    {"value":"285","name":"Velizy","storeAddress":{"address":"VELIZY VILLACOUBLAY","displayAddress":"3 RUE DU PETIT CLAMART, VELIZY VILLACOUBLAY","position":{"formattedAddress":"3 Rue du Petit Clamart, 78140 Vélizy-Villacoublay, France","latitude":48.7836082,"longitude":2.2242111,"extra":{"googlePlaceId":"ChIJe19je9N75kcRnTKA871NiEM","confidence":1,"premise":null,"subpremise":null,"neighborhood":"Vélizy-Villacoublay","establishment":null},"administrativeLevels":{"level2long":"Yvelines","level2short":"Yvelines","level1long":"Île-de-France","level1short":"IDF"},"streetNumber":"3","streetName":"Rue du Petit Clamart","city":"Vélizy-Villacoublay","country":"France","countryCode":"FR","zipcode":"78140","provider":"google"}}},
    {"value":"431","name":"Saint-Étienne","storeAddress":{"address":"SAINT ETIENNE","displayAddress":"RUE JEAN HUSSE, SAINT ETIENNE","position":{"formattedAddress":"Rue Jean Huss, Saint-Étienne, France","latitude":45.4494787,"longitude":4.4156595,"extra":{"googlePlaceId":"ChIJiRX9dOir9UcRt8_-x0xyWOs","confidence":0.7,"premise":null,"subpremise":null,"neighborhood":"Saint-Étienne","establishment":null},"administrativeLevels":{"level2long":"Loire","level2short":"Loire","level1long":"Auvergne-Rhône-Alpes","level1short":"Auvergne-Rhône-Alpes"},"streetName":"Rue Jean Huss","city":"Saint-Étienne","country":"France","countryCode":"FR","provider":"google"}}},
    {"value":"051","name":"Hénin-Beaumont","storeAddress":{"address":"HENIN BEAUMONT","displayAddress":"BD OLOF PALME, HENIN BEAUMONT","position":{"formattedAddress":"Bd Olof Palme, 62110 Hénin-Beaumont, France","latitude":50.3939726,"longitude":2.9754529,"extra":{"googlePlaceId":"ChIJjUaUOVUz3UcRO-uyI78ScDI","confidence":0.7,"premise":null,"subpremise":null,"neighborhood":"Hénin-Beaumont","establishment":null},"administrativeLevels":{"level2long":"Pas-de-Calais","level2short":"Pas-de-Calais","level1long":"Hauts-de-France","level1short":"Hauts-de-France"},"streetName":"Boulevard Olof Palme","city":"Hénin-Beaumont","country":"France","countryCode":"FR","zipcode":"62110","provider":"google"}}},
    {"value":"580","name":"La Madeleine","storeAddress":{"address":"PARIS","displayAddress":"23 BLD DE LA MADELEINE, PARIS","position":{"formattedAddress":"23 Bd de la Madeleine, 75001 Paris, France","latitude":48.8691255,"longitude":2.3253967,"extra":{"googlePlaceId":"ChIJUy4XATNu5kcR8txzhayLVo8","confidence":1,"premise":null,"subpremise":null,"neighborhood":"Paris","establishment":null},"administrativeLevels":{"level2long":"Département de Paris","level2short":"Département de Paris","level1long":"Île-de-France","level1short":"IDF"},"streetNumber":"23","streetName":"Boulevard de la Madeleine","city":"Paris","country":"France","countryCode":"FR","zipcode":"75001","provider":"google"}}},
    {"value":"389","name":"Franconville","storeAddress":{"address":"FRANCONVILLE","displayAddress":"337/339 RUE DU GENERAL LECLERC, FRANCONVILLE","position":{"formattedAddress":"339 Rue du Général Leclerc 337, 95130 Franconville, France","latitude":48.98641989999999,"longitude":2.2136086,"extra":{"googlePlaceId":"EjwzMzkgUnVlIGR1IEfDqW7DqXJhbCBMZWNsZXJjIDMzNywgOTUxMzAgRnJhbmNvbnZpbGxlLCBGcmFuY2UiOho4CjESLwoUChIJW_jyfyRn5kcRdKZBbVq7ShUQ0wIqFAoSCV9x_0wiZ-ZHEaSy8QhOvVU-EgMzMzc","confidence":0.9,"premise":null,"subpremise":"337","neighborhood":"Franconville","establishment":null},"administrativeLevels":{"level2long":"Val-d'Oise","level2short":"Val-d'Oise","level1long":"Île-de-France","level1short":"IDF"},"streetNumber":"339","streetName":"Rue du Général Leclerc","city":"Franconville","country":"France","countryCode":"FR","zipcode":"95130","provider":"google"}}},
    {"value":"435","name":"Grenoble","storeAddress":{"address":"SAINT MARTIN D'HERES","displayAddress":"150 AV GABRIEL PERI, SAINT MARTIN D'HERES","position":{"formattedAddress":"150 Av. Gabriel Péri, 38400 Saint-Martin-d'Hères, France","latitude":45.1808805,"longitude":5.7756206,"extra":{"googlePlaceId":"ChIJIQctUG31ikcRdtuGfNNZNl8","confidence":1,"premise":null,"subpremise":null,"neighborhood":"Saint-Martin-d'Hères","establishment":null},"administrativeLevels":{"level2long":"Isère","level2short":"Isère","level1long":"Auvergne-Rhône-Alpes","level1short":"Auvergne-Rhône-Alpes"},"streetNumber":"150","streetName":"Avenue Gabriel Péri","city":"Saint-Martin-d'Hères","country":"France","countryCode":"FR","zipcode":"38400","provider":"google"}}},
    {"value":"018","name":"Avignon","storeAddress":{"address":"VEDENE","displayAddress":"100 CHEMIN DU PONT BLANC, VEDENE","position":{"formattedAddress":"100 Chem. du Pont Blanc, 84270 Vedène, France","latitude":43.9782016,"longitude":4.8912924,"extra":{"googlePlaceId":"ChIJs6o-31jttRIRnmBWk2rcyhs","confidence":1,"premise":null,"subpremise":null,"neighborhood":"Vedène","establishment":null},"administrativeLevels":{"level2long":"Vaucluse","level2short":"Vaucluse","level1long":"Provence-Alpes-Côte d'Azur","level1short":"Provence-Alpes-Côte d'Azur"},"streetNumber":"100","streetName":"Chemin du Pont Blanc","city":"Vedène","country":"France","countryCode":"FR","zipcode":"84270","provider":"google"}}},
    {"value":"315","name":"Toulon - La Valette-du-Var","storeAddress":{"address":"TOULON","displayAddress":"ZAC DE VALGORA - BP 515, TOULON","position":{"formattedAddress":"7 Château Redon, 83160 La Valette-du-Var, France","latitude":43.1405295,"longitude":6.0098258,"extra":{"googlePlaceId":"ChIJRXf7a6QZyRIRksiJjHKRI-8","confidence":1,"premise":null,"subpremise":null,"neighborhood":"La Valette-du-Var","establishment":null},"administrativeLevels":{"level2long":"Var","level2short":"Var","level1long":"Provence-Alpes-Côte d'Azur","level1short":"Provence-Alpes-Côte d'Azur"},"streetNumber":"7","streetName":"Château Redon","city":"La Valette-du-Var","country":"France","countryCode":"FR","zipcode":"83160","provider":"google"}}},
    {"value":"260","name":"La Maxe","storeAddress":{"address":"LA MAXE","displayAddress":"RUE DU TROU AUX SERPENTS, LA MAXE","position":{"formattedAddress":"Rue du Trou aux Serpents, La Maxe, France","latitude":49.1462908,"longitude":6.1907195,"extra":{"googlePlaceId":"EilSdWUgZHUgVHJvdSBhdXggU2VycGVudHMsIExhIE1heGUsIEZyYW5jZSIuKiwKFAoSCXki8CHE3pRHEccqutLss-0sEhQKEgnTaUU2J9-URxEAnzqauV8KBA","confidence":0.7,"premise":null,"subpremise":null,"neighborhood":"La Maxe","establishment":null},"administrativeLevels":{"level2long":"Moselle","level2short":"Moselle","level1long":"Grand Est","level1short":"Grand Est"},"streetName":"Rue du Trou aux Serpents","city":"La Maxe","country":"France","countryCode":"FR","provider":"google"}}},
    {"value":"199","name":"Caen","storeAddress":{"address":"FLEURY SUR ORNE","displayAddress":"970 rue de Suisse Normande, FLEURY SUR ORNE","position":{"formattedAddress":"970 Av. De Suisse Normande, 14123 Fleury-sur-Orne, France","latitude":49.1459023,"longitude":-0.3644115,"extra":{"googlePlaceId":"ChIJ42SV6mtCCkgR7kNAgLssZaA","confidence":1,"premise":null,"subpremise":null,"neighborhood":"Fleury-sur-Orne","establishment":null},"administrativeLevels":{"level2long":"Calvados","level2short":"Calvados","level1long":"Normandie","level1short":"Normandie"},"streetNumber":"970","streetName":"Avenue De Suisse Normande","city":"Fleury-sur-Orne","country":"France","countryCode":"FR","zipcode":"14123","provider":"google"}}},
    {"value":"086","name":"Dijon","storeAddress":{"address":"DIJON","displayAddress":"1 RUE DE CRACOVIE, DIJON","position":{"formattedAddress":"1 Rue de Cracovie, 21000 Dijon, France","latitude":47.34116840000001,"longitude":5.0639272,"extra":{"googlePlaceId":"ChIJmzE9ov5h7UcRHpH1ViLjqos","confidence":1,"premise":null,"subpremise":null,"neighborhood":"Dijon","establishment":null},"administrativeLevels":{"level2long":"Côte-d'Or","level2short":"Côte-d'Or","level1long":"Bourgogne-Franche-Comté","level1short":"Bourgogne-Franche-Comté"},"streetNumber":"1","streetName":"Rue de Cracovie","city":"Dijon","country":"France","countryCode":"FR","zipcode":"21000","provider":"google"}}},
    {"value":"130","name":"Vitrolles","storeAddress":{"address":"VITROLLES","displayAddress":"LA BASTIDE BLANCHE, VITROLLES","position":{"formattedAddress":"Chem. de la Bastide Blanche, 13127 Vitrolles, France","latitude":43.4301171,"longitude":5.2632917,"extra":{"googlePlaceId":"ChIJMfCg-dnoyRIRmYVoL7KkE6w","confidence":0.7,"premise":null,"subpremise":null,"neighborhood":"Vitrolles","establishment":null},"administrativeLevels":{"level2long":"Bouches-du-Rhône","level2short":"Bouches-du-Rhône","level1long":"Provence-Alpes-Côte d'Azur","level1short":"Provence-Alpes-Côte d'Azur"},"streetName":"Chemin de la Bastide Blanche","city":"Vitrolles","country":"France","countryCode":"FR","zipcode":"13127","provider":"google"}}},
    {"value":"345","name":"Clermont-Ferrand","storeAddress":{"address":"CLERMONT FERRAND","displayAddress":"19 Boulevard Louis Chartoire, CLERMONT FERRAND","position":{"formattedAddress":"19 Bd Louis Chartoire, 63100 Clermont-Ferrand, France","latitude":45.8041219,"longitude":3.1394446,"extra":{"googlePlaceId":"ChIJ8w6krfIe90cRCrSi5_M7UT0","confidence":1,"premise":null,"subpremise":null,"neighborhood":"Clermont-Ferrand","establishment":null},"administrativeLevels":{"level2long":"Puy-de-Dôme","level2short":"Puy-de-Dôme","level1long":"Auvergne-Rhône-Alpes","level1short":"Auvergne-Rhône-Alpes"},"streetNumber":"19","streetName":"Boulevard Louis Chartoire","city":"Clermont-Ferrand","country":"France","countryCode":"FR","zipcode":"63100","provider":"google"}}},
    {"value":"060","name":"Brest","storeAddress":{"address":"GUIPAVAS","displayAddress":"LES CHAMPS DE COATAUDON, GUIPAVAS","position":{"formattedAddress":"Bd de Coataudon, 29490 Guipavas, France","latitude":48.4141377,"longitude":-4.4420026,"extra":{"googlePlaceId":"ChIJPYMTy0C6FkgRYYMSvWo3yYQ","confidence":0.7,"premise":null,"subpremise":null,"neighborhood":"Guipavas","establishment":null},"administrativeLevels":{"level2long":"Finistère","level2short":"Finistère","level1long":"Bretagne","level1short":"Bretagne"},"streetName":"Boulevard de Coataudon","city":"Guipavas","country":"France","countryCode":"FR","zipcode":"29490","provider":"google"}}},
    {"value":"402","name":"Montpellier","storeAddress":{"address":"MONTPELLIER","displayAddress":"ZAC PORT MARIANNE-ZONE ODYSSEUM, MONTPELLIER","position":{"formattedAddress":"77 Rue Wangari Maathai, 34000 Montpellier, France","latitude":43.5980115,"longitude":3.9004499,"extra":{"googlePlaceId":"ChIJW48KJY-vthIRJlIs1r-ks7k","confidence":1,"premise":null,"subpremise":null,"neighborhood":"Montpellier","establishment":null},"administrativeLevels":{"level2long":"Hérault","level2short":"Hérault","level1long":"Occitanie","level1short":"Occitanie"},"streetNumber":"77","streetName":"Rue Wangari Maathai","city":"Montpellier","country":"France","countryCode":"FR","zipcode":"34000","provider":"google"}}},
    {"value":"131","name":"Paris Nord","storeAddress":{"address":"ROISSY CHARLES DE G","displayAddress":"176 AVENUE DE LA PLAINE DE FRANCE, ROISSY CHARLES DE G","position":{"formattedAddress":"176 Av. de la Plaine de France, 95500 Gonesse, France","latitude":48.9754339,"longitude":2.4958209,"extra":{"googlePlaceId":"ChIJGTmU3h0V5kcR6avRnRB4Q3c","confidence":0.7,"premise":null,"subpremise":null,"neighborhood":"Gonesse","establishment":null},"administrativeLevels":{"level1long":"Île-de-France","level1short":"IDF"},"streetNumber":"176","streetName":"Avenue de la Plaine de France","city":"Gonesse","country":"France","countryCode":"FR","zipcode":"95500","provider":"google"}}},
    {"value":"163","name":"Rouen","storeAddress":{"address":"TOURVILLE LA RIVIERE","displayAddress":"AVENUE GUSTAVE PICARD, TOURVILLE LA RIVIERE","position":{"formattedAddress":"Av. Gustave Picard, 76410 Tourville-la-Rivière, France","latitude":49.3280008,"longitude":1.0954912,"extra":{"googlePlaceId":"ChIJuYv8j1cg4UcROP6zWAZeSCI","confidence":0.7,"premise":null,"subpremise":null,"neighborhood":"Tourville-la-Rivière","establishment":null},"administrativeLevels":{"level2long":"Seine-Maritime","level2short":"Seine-Maritime","level1long":"Normandie","level1short":"Normandie"},"streetName":"Avenue Gustave Picard","city":"Tourville-la-Rivière","country":"France","countryCode":"FR","zipcode":"76410","provider":"google"}}},
    {"value":"133","name":"Lomme","storeAddress":{"address":"LOMME","displayAddress":"RUE GRAND BUT, LOMME","position":{"formattedAddress":"Rue du Grand But, 59160 Lille, France","latitude":50.6516187,"longitude":2.9742444,"extra":{"googlePlaceId":"ChIJ0Q6ZAWbV3EcR7MdWUeI-YM0","confidence":0.7,"premise":null,"subpremise":null,"neighborhood":"Lille","establishment":null},"administrativeLevels":{"level2long":"Nord","level2short":"Nord","level1long":"Hauts-de-France","level1short":"Hauts-de-France"},"streetName":"Rue du Grand But","city":"Lille","country":"France","countryCode":"FR","zipcode":"59160","provider":"google"}}},
    {"value":"239","name":"Strasbourg","storeAddress":{"address":"STRASBOURG","displayAddress":"28 PLACE DES ABATTOIRS, STRASBOURG","position":{"formattedAddress":"28 Pl. de l'Abattoir, 67200 Strasbourg, France","latitude":48.5989709,"longitude":7.733227800000001,"extra":{"googlePlaceId":"Ei4yOCBQbC4gZGUgbCdBYmF0dG9pciwgNjcyMDAgU3RyYXNib3VyZywgRnJhbmNlIjASLgoUChIJ95lYdD7IlkcRkT5giMs06jAQHCoUChIJFa8rbT7IlkcR1E8mcz2xmsE","confidence":0.9,"premise":null,"subpremise":null,"neighborhood":"Strasbourg","establishment":null},"administrativeLevels":{"level2long":"Bas-Rhin","level2short":"Bas-Rhin","level1long":"Grand Est","level1short":"Grand Est"},"streetNumber":"28","streetName":"Place de l'Abattoir","city":"Strasbourg","country":"France","countryCode":"FR","zipcode":"67200","provider":"google"}}},
    {"value":"434","name":"Tours","storeAddress":{"address":"TOURS","displayAddress":"RUE DESIRE LECOMTE, TOURS","position":{"formattedAddress":"Rue Désiré Lecomte, Tours, France","latitude":47.3767853,"longitude":0.7188268,"extra":{"googlePlaceId":"ChIJe0Y03BnU_EcRAoEiQ3ao7s8","confidence":0.7,"premise":null,"subpremise":null,"neighborhood":"Tours","establishment":null},"administrativeLevels":{"level2long":"Indre-et-Loire","level2short":"Indre-et-Loire","level1long":"Centre-Val de Loire","level1short":"Centre-Val de Loire"},"streetName":"Rue Désiré Lecomte","city":"Tours","country":"France","countryCode":"FR","provider":"google"}}},
    {"value":"177","name":"Rennes","storeAddress":{"address":"PACE","displayAddress":"RIVE OUEST - 14 AVENUE DES TOUCHES, PACE","position":{"formattedAddress":"ZAC Rive-Ouest, 14 Av. des Touches, 35740 Pacé, France","latitude":48.1372937,"longitude":-1.7638697,"extra":{"googlePlaceId":"ChIJ50UvGEjhDkgR1vpuLIaJA_A","confidence":1,"premise":"Zone d'aménagement concerté Rive-Ouest","subpremise":null,"neighborhood":"Pacé","establishment":null},"administrativeLevels":{"level2long":"Ille-et-Vilaine","level2short":"Ille-et-Vilaine","level1long":"Bretagne","level1short":"Bretagne"},"streetNumber":"14","streetName":"Avenue des Touches","city":"Pacé","country":"France","countryCode":"FR","zipcode":"35740","provider":"google"}}},
    {"value":"083","name":"Plaisir","storeAddress":{"address":"PLAISIR","displayAddress":"202 RUE HENRI BARBUSSE, PLAISIR","position":{"formattedAddress":"202 Rue Henri Barbusse, 78370 Plaisir, France","latitude":48.829669,"longitude":1.966287,"extra":{"googlePlaceId":"ChIJHY_EPamF5kcRcNV4XwX5G84","confidence":1,"premise":null,"subpremise":null,"neighborhood":"Plaisir","establishment":null},"administrativeLevels":{"level2long":"Yvelines","level2short":"Yvelines","level1long":"Île-de-France","level1short":"IDF"},"streetNumber":"202","streetName":"Rue Henri Barbusse","city":"Plaisir","country":"France","countryCode":"FR","zipcode":"78370","provider":"google"}}},
    {"value":"487","name":"Orléans","storeAddress":{"address":"ARDON","displayAddress":"ZAC DE LIMERE- RD POINT DE SOLOGNE, ARDON","position":{"formattedAddress":"1411 All. de la Pomme de Pin, 45160 Ardon, France","latitude":47.82138579999999,"longitude":1.9130393,"extra":{"googlePlaceId":"ChIJ9RAZVZrm5EcRJOVHUrjEUO8","confidence":1,"premise":null,"subpremise":null,"neighborhood":"Ardon","establishment":null},"administrativeLevels":{"level2long":"Loiret","level2short":"Loiret","level1long":"Centre-Val de Loire","level1short":"Centre-Val de Loire"},"streetNumber":"1411","streetName":"Allée de la Pomme de Pin","city":"Ardon","country":"France","countryCode":"FR","zipcode":"45160","provider":"google"}}},
    {"value":"198","name":"Reims","storeAddress":{"address":"THILLOIS","displayAddress":"ZAC NORD THILLOIS, THILLOIS","position":{"formattedAddress":"Thillois, France","latitude":49.2563727,"longitude":3.9541095,"extra":{"googlePlaceId":"ChIJEUcUHeAK6UcRwhGGmcrmYyU","confidence":0.5,"premise":null,"subpremise":null,"neighborhood":"Thillois","establishment":null},"administrativeLevels":{"level2long":"Marne","level2short":"Marne","level1long":"Grand Est","level1short":"Grand Est"},"city":"Thillois","country":"France","countryCode":"FR","provider":"google"}}},
    {"value":"240","name":"Villiers","storeAddress":{"address":"VILLIERS SUR MARNE","displayAddress":"33,35 RUE JEAN JAURES, VILLIERS SUR MARNE","position":{"formattedAddress":"33-35 Rue Jean Jaurès, 94350 Villiers-sur-Marne, France","latitude":48.8280837,"longitude":2.5302537,"extra":{"googlePlaceId":"ChIJw5Y3msMN5kcRKwwEhu6Cu1o","confidence":1,"premise":null,"subpremise":null,"neighborhood":"Villiers-sur-Marne","establishment":null},"administrativeLevels":{"level2long":"Val-de-Marne","level2short":"Val-de-Marne","level1long":"Île-de-France","level1short":"IDF"},"streetNumber":"33-35","streetName":"Rue Jean Jaurès","city":"Villiers-sur-Marne","country":"France","countryCode":"FR","zipcode":"94350","provider":"google"}}},
    {"value":"433","name":"La Valentine","storeAddress":{"address":"MARSEILLE","displayAddress":"ZAC LA VALENTINE - LA RAVELLE, MARSEILLE","position":{"formattedAddress":"La Sablière La Ravelle, 13011 Marseille, France","latitude":43.2919425,"longitude":5.4790066,"extra":{"googlePlaceId":"ChIJcRisNx68yRIRu9T0gZbrZzs","confidence":0.7,"premise":null,"subpremise":null,"neighborhood":"Marseille","establishment":"La Sablière La Ravelle"},"administrativeLevels":{"level2long":"Bouches-du-Rhône","level2short":"Bouches-du-Rhône","level1long":"Provence-Alpes-Côte d'Azur","level1short":"Provence-Alpes-Côte d'Azur"},"city":"Marseille","country":"France","countryCode":"FR","zipcode":"13011","provider":"google"}}},
    {"value":"645","name":"Rivoli","storeAddress":{"address":"PARIS","displayAddress":"144 RUE DE RIVOLI, PARIS","position":{"formattedAddress":"144 Rue de Rivoli, 75001 Paris, France","latitude":48.8605549,"longitude":2.3426093,"extra":{"googlePlaceId":"ChIJod9VlyFu5kcRgiWHN68rxs4","confidence":1,"premise":null,"subpremise":null,"neighborhood":"Paris","establishment":null},"administrativeLevels":{"level2long":"Département de Paris","level2short":"Département de Paris","level1long":"Île-de-France","level1short":"IDF"},"streetNumber":"144","streetName":"Rue de Rivoli","city":"Paris","country":"France","countryCode":"FR","zipcode":"75001","provider":"google"}}},
    {"value":"444","name":"Mulhouse","storeAddress":{"address":"Morschwiller-le-bas","displayAddress":"Place Du Renne, Morschwiller-le-bas","position":{"formattedAddress":"Morschwiller-le-Bas, France","latitude":47.73595599999999,"longitude":7.266725999999998,"extra":{"googlePlaceId":"ChIJy4ftWd6EkUcRLZFFHe5QUog","confidence":0.5,"premise":null,"subpremise":null,"neighborhood":"Morschwiller-le-Bas","establishment":null},"administrativeLevels":{"level2long":"Haut-Rhin","level2short":"Haut-Rhin","level1long":"Grand Est","level1short":"Grand Est"},"city":"Morschwiller-le-Bas","country":"France","countryCode":"FR","provider":"google"}}},
    {"value":"432","name":"Thiais","storeAddress":{"address":"THIAIS","displayAddress":"3 RUE DE LA RESISTANCE, THIAIS","position":{"formattedAddress":"3 Rue de la Résistance, 94320 Thiais, France","latitude":48.7584338,"longitude":2.3861527,"extra":{"googlePlaceId":"ChIJBaUVnWl05kcRzzHb13ZBoNU","confidence":1,"premise":null,"subpremise":null,"neighborhood":"Thiais","establishment":null},"administrativeLevels":{"level2long":"Val-de-Marne","level2short":"Val-de-Marne","level1long":"Île-de-France","level1short":"IDF"},"streetNumber":"3","streetName":"Rue de la Résistance","city":"Thiais","country":"France","countryCode":"FR","zipcode":"94320","provider":"google"}}},
    {"value":"316","name":"Nantes","storeAddress":{"address":"SAINT HERBLAIN CEDEX","displayAddress":"POLE ATLANTIS - BP 137, SAINT HERBLAIN CEDEX","position":{"formattedAddress":"Bd Salvador Allende, 44800 Saint-Herblain, France","latitude":47.22547230000001,"longitude":-1.6319644,"extra":{"googlePlaceId":"ChIJN2cXFlrrBUgRtYZ0PKqkhps","confidence":0.7,"premise":null,"subpremise":null,"neighborhood":"Saint-Herblain","establishment":null},"administrativeLevels":{"level2long":"Loire-Atlantique","level2short":"Loire-Atlantique","level1long":"Pays de la Loire","level1short":"Pays de la Loire"},"streetName":"Boulevard Salvador Allende","city":"Saint-Herblain","country":"France","countryCode":"FR","zipcode":"44800","provider":"google"}}}
 ]