[{"value":"121","name":"Gentofte","storePageUrl":"https://www.ikea.com/dk/da/stores/gentofte/","storeAddress":{"address":"Nybrovej 2","cityName":"Gentofte","displayAddress":"Nybrovej 2, Gentofte","position":{"formattedAddress":"Nybrovej 2, 2820 Gentofte, Denmark","latitude":55.7549982,"longitude":12.5178682,"extra":{"googlePlaceId":"ChIJS3oLKQZOUkYRIPa2Vdm2ipo","confidence":1,"premise":null,"subpremise":null,"neighborhood":"Gentofte","establishment":null},"administrativeLevels":{},"streetNumber":"2","streetName":"Nybrovej","city":"Gentofte","country":"Denmark","countryCode":"DK","zipcode":"2820","provider":"google"}}},{"value":"094","name":"Taastrup","storePageUrl":"https://www.ikea.com/dk/da/stores/taastrup/","storeAddress":{"address":"Mårkærvej 15","cityName":"Taastrup","displayAddress":"Mårkærvej 15, Taastrup","position":{"formattedAddress":"Mårkærvej 15, 2630 Taastrup, Denmark","latitude":55.6590363,"longitude":12.2844204,"extra":{"googlePlaceId":"ChIJGePyNJlZUkYREQ0LwkZLdFs","confidence":1,"premise":null,"subpremise":null,"neighborhood":"Taastrup","establishment":null},"administrativeLevels":{},"streetNumber":"15","streetName":"Mårkærvej","city":"Taastrup","country":"Denmark","countryCode":"DK","zipcode":"2630","provider":"google"}}},{"value":"005","name":"Aalborg","storePageUrl":"https://www.ikea.com/dk/da/stores/aalborg/","storeAddress":{"address":"Krebsen 40","cityName":"Aalborg","displayAddress":"Krebsen 40, Aalborg","position":{"formattedAddress":"Krebsen 40, 9200 Aalborg, Denmark","latitude":57.00028349999999,"longitude":9.865542699999999,"extra":{"googlePlaceId":"ChIJs_bo_pMzSUYRtl7qP1NEtGM","confidence":1,"premise":null,"subpremise":null,"neighborhood":"Aalborg SV","establishment":null},"administrativeLevels":{},"streetNumber":"40","streetName":"Krebsen","city":"Aalborg","country":"Denmark","countryCode":"DK","zipcode":"9200","provider":"google"}}},{"value":"172","name":"Odense","storePageUrl":"https://www.ikea.com/dk/da/stores/odense/","storeAddress":{"address":"Ørbækvej 91","cityName":"Odense","displayAddress":"Ørbækvej 91, Odense","position":{"formattedAddress":"Ørbækvej 91, 5220 Odense, Denmark","latitude":55.3806492,"longitude":10.4296261,"extra":{"googlePlaceId":"ChIJ3d_9bjggTUYRX7IkGqob6Fg","confidence":1,"premise":null,"subpremise":null,"neighborhood":"Odense SØ","establishment":null},"administrativeLevels":{},"streetNumber":"91","streetName":"Ørbækvej","city":"Odense","country":"Denmark","countryCode":"DK","zipcode":"5220","provider":"google"}}},{"value":"298","name":"Aarhus","storePageUrl":"https://www.ikea.com/dk/da/stores/aarhus/","storeAddress":{"address":"Graham Bellsvej 7-11","cityName":"Aarhus N","displayAddress":"Graham Bellsvej 7-11, Aarhus N","position":{"formattedAddress":"Graham Bells Vej 7, 8200 Aarhus, Denmark","latitude":56.2034487,"longitude":10.1814387,"extra":{"googlePlaceId":"ChIJnSpwkokVTEYRleGp_6SCpZA","confidence":1,"premise":null,"subpremise":null,"neighborhood":"Aarhus N","establishment":null},"administrativeLevels":{},"streetNumber":"7","streetName":"Graham Bells Vej","city":"Aarhus","country":"Denmark","countryCode":"DK","zipcode":"8200","provider":"google"}}}]
