[{"value":"026","name":"Canton, MI","storePageUrl":"https://www.ikea.com/us/en/stores/canton/","storeAddress":{"address":"41640 Ford Road","cityName":"Canton","displayAddress":"41640 Ford Road, Canton","position":{"formattedAddress":"41640 Ford Rd, Canton, MI 48187, USA","latitude":42.3252624,"longitude":-83.4513499,"extra":{"googlePlaceId":"ChIJ0Wa62fdSO4gRI1ZJsIVENvk","confidence":1,"premise":null,"subpremise":null,"neighborhood":"Canton","establishment":null},"administrativeLevels":{"level2long":"Wayne County","level2short":"Wayne County","level1long":"Michigan","level1short":"MI"},"streetNumber":"41640","streetName":"Ford Road","city":"Canton","country":"United States","countryCode":"US","zipcode":"48187","provider":"google"}}},{"value":"067","name":"Charlotte, NC","storePageUrl":"https://www.ikea.com/us/en/stores/charlotte/","storeAddress":{"address":"8300 IKEA Boulevard","cityName":"Charlotte","displayAddress":"8300 IKEA Boulevard, Charlotte","position":{"formattedAddress":"8300 Ikea Blvd, Charlotte, NC 28262, USA","latitude":35.2935168,"longitude":-80.7647415,"extra":{"googlePlaceId":"ChIJDTEkQYceVIgR47eXN_dMlPk","confidence":1,"premise":null,"subpremise":null,"neighborhood":"Mineral Springs / Rumple Road","establishment":null},"administrativeLevels":{"level2long":"Mecklenburg County","level2short":"Mecklenburg County","level1long":"North Carolina","level1short":"NC"},"streetNumber":"8300","streetName":"Ikea Boulevard","city":"Charlotte","country":"United States","countryCode":"US","zipcode":"28262","provider":"google"}}},{"value":"921","name":"Brooklyn, NY","storePageUrl":"https://www.ikea.com/us/en/stores/brooklyn/","storeAddress":{"address":"1 Beard Street","cityName":"Brooklyn","displayAddress":"1 Beard Street, Brooklyn","position":{"formattedAddress":"1 Beard St, Brooklyn, NY 11231, USA","latitude":40.67148479999999,"longitude":-74.0110997,"extra":{"googlePlaceId":"ChIJ104B6o1awokRNw2cH0F128U","confidence":1,"premise":null,"subpremise":null,"neighborhood":"Red Hook","establishment":null},"administrativeLevels":{"level2long":"Kings County","level2short":"Kings County","level1long":"New York","level1short":"NY"},"streetNumber":"1","streetName":"Beard Street","country":"United States","countryCode":"US","zipcode":"11231","provider":"google"}}},{"value":"170","name":"Bolingbrook, IL","storePageUrl":"https://www.ikea.com/us/en/stores/bolingbrook/","storeAddress":{"address":"750 E. Boughton","cityName":"Bolingbrook","displayAddress":"750 E. Boughton, Bolingbrook","position":{"formattedAddress":"750 E Boughton Rd, Bolingbrook, IL 60440, USA","latitude":41.7280902,"longitude":-88.03783700000001,"extra":{"googlePlaceId":"ChIJATrawJNaDogRVl7YBmPuLyo","confidence":1,"premise":null,"subpremise":null,"neighborhood":"Bolingbrook","establishment":null},"administrativeLevels":{"level3long":"Du Page Township","level3short":"Du Page Township","level2long":"Will County","level2short":"Will County","level1long":"Illinois","level1short":"IL"},"streetNumber":"750","streetName":"East Boughton Road","city":"Bolingbrook","country":"United States","countryCode":"US","zipcode":"60440","provider":"google"}}},{"value":"257","name":"Atlanta, GA","storePageUrl":"https://www.ikea.com/us/en/stores/atlanta/","storeAddress":{"address":"441 16th Street","cityName":"Atlanta","displayAddress":"441 16th Street, Atlanta","position":{"formattedAddress":"441 16th St NW, Atlanta, GA 30363, USA","latitude":33.78883680000001,"longitude":-84.4051193,"extra":{"googlePlaceId":"ChIJ1T7YvvEE9YgRek6oblBxoCA","confidence":1,"premise":null,"subpremise":null,"neighborhood":"Atlantic Station","establishment":null},"administrativeLevels":{"level2long":"Fulton County","level2short":"Fulton County","level1long":"Georgia","level1short":"GA"},"streetNumber":"441","streetName":"16th Street Northwest","city":"Atlanta","country":"United States","countryCode":"US","zipcode":"30363","provider":"google"}}},{"value":"511","name":"Columbus, OH","storePageUrl":"https://www.ikea.com/us/en/stores/columbus/","storeAddress":{"address":"1900 IKEA Way","cityName":"Columbus","displayAddress":"1900 IKEA Way, Columbus","position":{"formattedAddress":"1900 Ikea Wy, Columbus, OH 43240, USA","latitude":40.1501367,"longitude":-82.9667899,"extra":{"googlePlaceId":"ChIJPURk7UP0OIgRGCvOQRfR1Kk","confidence":1,"premise":null,"subpremise":null,"neighborhood":"Polaris North","establishment":null},"administrativeLevels":{"level3long":"Orange Township","level3short":"Orange Township","level2long":"Delaware County","level2short":"Delaware County","level1long":"Ohio","level1short":"OH"},"streetNumber":"1900","streetName":"Ikea Way","city":"Columbus","country":"United States","countryCode":"US","zipcode":"43240","provider":"google"}}},{"value":"413","name":"Covina, CA","storePageUrl":"https://www.ikea.com/us/en/stores/covina/","storeAddress":{"address":"848 South Barranca Avenue","cityName":"Covina","displayAddress":"848 South Barranca Avenue, Covina","position":{"formattedAddress":"848 S Barranca Ave, Covina, CA 91723, USA","latitude":34.0744813,"longitude":-117.8791263,"extra":{"googlePlaceId":"ChIJb49Lk6opw4ARcIkkAUGOC4c","confidence":0.7,"premise":null,"subpremise":null,"neighborhood":"Covina","establishment":null},"administrativeLevels":{"level2long":"Los Angeles County","level2short":"Los Angeles County","level1long":"California","level1short":"CA"},"streetNumber":"848","streetName":"South Barranca Avenue","city":"Covina","country":"United States","countryCode":"US","zipcode":"91723","provider":"google"}}},{"value":"399","name":"Burbank, CA","storePageUrl":"https://www.ikea.com/us/en/stores/burbank/","storeAddress":{"address":"600 South IKEA Way","cityName":"Burbank","displayAddress":"600 South IKEA Way, Burbank","position":{"formattedAddress":"600 S Ikea Way, Burbank, CA 91502, USA","latitude":34.1748067,"longitude":-118.3035453,"extra":{"googlePlaceId":"ChIJPZODPv6_woAR6pT4wlNXWDY","confidence":1,"premise":null,"subpremise":null,"neighborhood":"Burbank","establishment":null},"administrativeLevels":{"level2long":"Los Angeles County","level2short":"Los Angeles County","level1long":"California","level1short":"CA"},"streetNumber":"600","streetName":"South Ikea Way","city":"Burbank","country":"United States","countryCode":"US","zipcode":"91502","provider":"google"}}},{"value":"154","name":"Elizabeth, NJ","storePageUrl":"https://www.ikea.com/us/en/stores/elizabeth/","storeAddress":{"address":"1000 Center Drive","cityName":"Elizabeth","displayAddress":"1000 Center Drive, Elizabeth","position":{"formattedAddress":"1000 Ikea Dr, Elizabeth, NJ 07201, USA","latitude":40.6751301,"longitude":-74.1697393,"extra":{"googlePlaceId":"ChIJ_Q0T9WJSwokR7IGvnlwHBXo","confidence":1,"premise":null,"subpremise":null,"neighborhood":"Elizabeth","establishment":null},"administrativeLevels":{"level2long":"Union County","level2short":"Union County","level1long":"New Jersey","level1short":"NJ"},"streetNumber":"1000","streetName":"Ikea Drive","city":"Elizabeth","country":"United States","countryCode":"US","zipcode":"07201","provider":"google"}}},{"value":"211","name":"Conshohocken, PA","storePageUrl":"https://www.ikea.com/us/en/stores/conshohocken/","storeAddress":{"address":"400 Alan Wood Road","cityName":"Conshohocken","displayAddress":"400 Alan Wood Road, Conshohocken","position":{"formattedAddress":"400 Alan Wood Rd, Conshohocken, PA 19428, USA","latitude":40.0943896,"longitude":-75.3067793,"extra":{"googlePlaceId":"ChIJx4cbXne-xokRkuQG0_-bPZk","confidence":1,"premise":null,"subpremise":null,"neighborhood":"Conshohocken","establishment":null},"administrativeLevels":{"level3long":"Plymouth Township","level3short":"Plymouth Township","level2long":"Montgomery County","level2short":"Montgomery County","level1long":"Pennsylvania","level1short":"PA"},"streetNumber":"400","streetName":"Alan Wood Road","city":"Conshohocken","country":"United States","countryCode":"US","zipcode":"19428","provider":"google"}}},{"value":"536","name":"Fishers, IN","storePageUrl":"https://www.ikea.com/us/en/stores/fishers/","storeAddress":{"address":"11400 IKEA Way","cityName":"Fishers","displayAddress":"11400 IKEA Way, Fishers","position":{"formattedAddress":"11400 IKEA Wy, Fishers, IN 46037, USA","latitude":39.9534162,"longitude":-86.0073736,"extra":{"googlePlaceId":"ChIJt_Nkin20FIgRjgiuKhiOOBI","confidence":1,"premise":null,"subpremise":null,"neighborhood":"Fishers","establishment":null},"administrativeLevels":{"level3long":"Delaware Township","level3short":"Delaware Township","level2long":"Hamilton County","level2short":"Hamilton County","level1long":"Indiana","level1short":"IN"},"streetNumber":"11400","streetName":"IKEA Way","city":"Fishers","country":"United States","countryCode":"US","zipcode":"46037","provider":"google"}}},{"value":"462","name":"Las Vegas, NV","storePageUrl":"https://www.ikea.com/us/en/stores/las-vegas/","storeAddress":{"address":"6500 IKEA Way","cityName":"Las Vegas","displayAddress":"6500 IKEA Way, Las Vegas","position":{"formattedAddress":"6500 IKEA Way, Las Vegas, NV 89148, USA","latitude":36.0688447,"longitude":-115.2806099,"extra":{"googlePlaceId":"ChIJYUyu0ofHyIARi4PL_dSjJNI","confidence":1,"premise":null,"subpremise":null,"neighborhood":"Rhodes Ranch","establishment":null},"administrativeLevels":{"level2long":"Clark County","level2short":"Clark County","level1long":"Nevada","level1short":"NV"},"streetNumber":"6500","streetName":"IKEA Way","city":"Las Vegas","country":"United States","countryCode":"US","zipcode":"89148","provider":"google"}}},{"value":"411","name":"College Park, MD","storePageUrl":"https://www.ikea.com/us/en/stores/college-park/","storeAddress":{"address":"10100 Baltimore Avenue","cityName":"College Park","displayAddress":"10100 Baltimore Avenue, College Park","position":{"formattedAddress":"10100 Baltimore Ave, College Park, MD 20740, USA","latitude":39.0206756,"longitude":-76.92883499999999,"extra":{"googlePlaceId":"ChIJ5ySSbHLEt4kRoB0WU7y5Cww","confidence":1,"premise":null,"subpremise":null,"neighborhood":"College Park","establishment":null},"administrativeLevels":{"level2long":"Prince George's County","level2short":"Prince George's County","level1long":"Maryland","level1short":"MD"},"streetNumber":"10100","streetName":"Baltimore Avenue","city":"College Park","country":"United States","countryCode":"US","zipcode":"20740","provider":"google"}}},{"value":"537","name":"Jacksonville, FL","storePageUrl":"https://www.ikea.com/us/en/stores/jacksonville/","storeAddress":{"address":"7801 Gate Parkway","cityName":"Jacksonville","displayAddress":"7801 Gate Parkway, Jacksonville","position":{"formattedAddress":"7801 Gate Pkwy, Jacksonville, FL 32256, USA","latitude":30.2374622,"longitude":-81.5167824,"extra":{"googlePlaceId":"ChIJvVZ6OrPK5YgR-h2HULQPrb0","confidence":1,"premise":null,"subpremise":null,"neighborhood":"Deerwood","establishment":null},"administrativeLevels":{"level2long":"Duval County","level2short":"Duval County","level1long":"Florida","level1short":"FL"},"streetNumber":"7801","streetName":"Gate Parkway","city":"Jacksonville","country":"United States","countryCode":"US","zipcode":"32256","provider":"google"}}},{"value":"167","name":"Costa Mesa, CA","storePageUrl":"https://www.ikea.com/us/en/stores/costa-mesa/","storeAddress":{"address":"1475 South Coast Drive","cityName":"Costa Mesa","displayAddress":"1475 South Coast Drive, Costa Mesa","position":{"formattedAddress":"1475 S Coast Dr, Costa Mesa, CA 92626, USA","latitude":33.6910441,"longitude":-117.9162956,"extra":{"googlePlaceId":"ChIJQf1gd1Hf3IARNv3VQRVXCVA","confidence":1,"premise":null,"subpremise":null,"neighborhood":"Costa Mesa","establishment":null},"administrativeLevels":{"level2long":"Orange County","level2short":"Orange County","level1long":"California","level1short":"CA"},"streetNumber":"1475","streetName":"South Coast Drive","city":"Costa Mesa","country":"United States","countryCode":"US","zipcode":"92626","provider":"google"}}},{"value":"175","name":"West Chester, OH","storePageUrl":"https://www.ikea.com/us/en/stores/west-chester/","storeAddress":{"address":"9500 IKEA Way","cityName":"West Chester","displayAddress":"9500 IKEA Way, West Chester","position":{"formattedAddress":"9500 Ikea Way, West Chester Township, OH 45069, USA","latitude":39.3154678,"longitude":-84.43399769999999,"extra":{"googlePlaceId":"ChIJO5O72_hXQIgR5gXa_2EmmRs","confidence":1,"premise":null,"subpremise":null,"neighborhood":"West Chester Township","establishment":null},"administrativeLevels":{"level3long":"West Chester Township","level3short":"West Chester Township","level2long":"Butler County","level2short":"Butler County","level1long":"Ohio","level1short":"OH"},"streetNumber":"9500","streetName":"Ikea Way","country":"United States","countryCode":"US","zipcode":"45069","provider":"google"}}},{"value":"165","name":"Emeryville, CA","storePageUrl":"https://www.ikea.com/us/en/stores/emeryville/","storeAddress":{"address":"4400 Shellmound Street","cityName":"Emeryville","displayAddress":"4400 Shellmound Street, Emeryville","position":{"formattedAddress":"4400 Shellmound St, Emeryville, CA 94608, USA","latitude":37.8317539,"longitude":-122.2919709,"extra":{"googlePlaceId":"ChIJ3R5Y60B-hYARWyeRvzQzjNc","confidence":1,"premise":null,"subpremise":null,"neighborhood":"Emeryville","establishment":null},"administrativeLevels":{"level2long":"Alameda County","level2short":"Alameda County","level1long":"California","level1short":"CA"},"streetNumber":"4400","streetName":"Shellmound Street","city":"Emeryville","country":"United States","countryCode":"US","zipcode":"94608","provider":"google"}}},{"value":"374","name":"Merriam, KS","storePageUrl":"https://www.ikea.com/us/en/stores/merriam/","storeAddress":{"address":"6000 IKEA Way","cityName":"Merriam","displayAddress":"6000 IKEA Way, Merriam","position":{"formattedAddress":"6000 Ikea Way, Merriam, KS 66202, USA","latitude":39.019658,"longitude":-94.69057889999999,"extra":{"googlePlaceId":"ChIJw5BJigHtwIcRoCUslspSzcs","confidence":1,"premise":null,"subpremise":null,"neighborhood":"Merriam","establishment":null},"administrativeLevels":{"level2long":"Johnson County","level2short":"Johnson County","level1long":"Kansas","level1short":"KS"},"streetNumber":"6000","streetName":"Ikea Way","city":"Merriam","country":"United States","countryCode":"US","zipcode":"66202","provider":"google"}}},{"value":"327","name":"Miami, FL","storePageUrl":"https://www.ikea.com/us/en/stores/miami/","storeAddress":{"address":"1801 NW 117th Ave","cityName":"Sweetwater","displayAddress":"1801 NW 117th Ave, Sweetwater","position":{"formattedAddress":"1801 NW 117th Ave, Miami, FL 33172, USA","latitude":25.7914278,"longitude":-80.3836105,"extra":{"googlePlaceId":"ChIJqRCjwcC-2YgRymLhyUBMUYA","confidence":1,"premise":null,"subpremise":null,"neighborhood":"Miami","establishment":null},"administrativeLevels":{"level2long":"Miami-Dade County","level2short":"Miami-Dade County","level1long":"Florida","level1short":"FL"},"streetNumber":"1801","streetName":"Northwest 117th Avenue","city":"Miami","country":"United States","countryCode":"US","zipcode":"33172","provider":"google"}}},{"value":"168","name":"Woodbridge, VA","storePageUrl":"https://www.ikea.com/us/en/stores/woodbridge/","storeAddress":{"address":"2900 Potomac Mills Circle","cityName":"Woodbridge","displayAddress":"2900 Potomac Mills Circle, Woodbridge","position":{"formattedAddress":"2900 Potomac Mills Cir, Woodbridge, VA 22192, USA","latitude":38.6448985,"longitude":-77.2900204,"extra":{"googlePlaceId":"EjEyOTAwIFBvdG9tYWMgTWlsbHMgQ2lyLCBXb29kYnJpZGdlLCBWQSAyMjE5MiwgVVNBIjESLwoUChIJwfC-PAtWtokRrbedmACyPgwQ1BYqFAoSCT3MLE0MVraJEZGnLb5eAx4x","confidence":0.9,"premise":null,"subpremise":null,"neighborhood":"Woodbridge","establishment":null},"administrativeLevels":{"level2long":"Prince William County","level2short":"Prince William County","level1long":"Virginia","level1short":"VA"},"streetNumber":"2900","streetName":"Potomac Mills Circle","city":"Woodbridge","country":"United States","countryCode":"US","zipcode":"22192","provider":"google"}}},{"value":"064","name":"Centennial, CO","storePageUrl":"https://www.ikea.com/us/en/stores/centennial/","storeAddress":{"address":"9800 E. IKEA Way","cityName":"Centennial","displayAddress":"9800 E. IKEA Way, Centennial","position":{"formattedAddress":"9800 East IKEA Way, Centennial, CO 80112, USA","latitude":39.5720848,"longitude":-104.8750157,"extra":{"googlePlaceId":"ChIJ8_yCTseFbIcR_EQmku4wX0k","confidence":1,"premise":null,"subpremise":null,"neighborhood":"Centennial","establishment":null},"administrativeLevels":{"level2long":"Arapahoe County","level2short":"Arapahoe County","level1long":"Colorado","level1short":"CO"},"streetNumber":"9800","streetName":"East IKEA Way","city":"Centennial","country":"United States","countryCode":"US","zipcode":"80112","provider":"google"}}},{"value":"209","name":"Tempe, AZ","storePageUrl":"https://www.ikea.com/us/en/stores/tempe/","storeAddress":{"address":"2110 West IKEA Way","cityName":"Tempe","displayAddress":"2110 West IKEA Way, Tempe","position":{"formattedAddress":"Parking lot, 2110 W Ikea Way, Tempe, AZ 85284, USA","latitude":33.3409062,"longitude":-111.9703209,"extra":{"googlePlaceId":"ChIJc5C9TskFK4cR8Eof3jGE1Cc","confidence":1,"premise":"Parking lot","subpremise":null,"neighborhood":"South Tempe","establishment":null},"administrativeLevels":{"level2long":"Maricopa County","level2short":"Maricopa County","level1long":"Arizona","level1short":"AZ"},"streetNumber":"2110","streetName":"West Ikea Way","city":"Tempe","country":"United States","countryCode":"US","zipcode":"85284","provider":"google"}}},{"value":"210","name":"Schaumburg, IL","storePageUrl":"https://www.ikea.com/us/en/stores/schaumburg/","storeAddress":{"address":"1800 East McConner Parkway","cityName":"Schaumburg","displayAddress":"1800 East McConner Parkway, Schaumburg","position":{"formattedAddress":"1800 McConnor Pkwy, Schaumburg, IL 60173, USA","latitude":42.0566646,"longitude":-88.03650449999999,"extra":{"googlePlaceId":"ChIJ_79ZVImvD4gRTpc8XD3FWi4","confidence":1,"premise":null,"subpremise":null,"neighborhood":"Schaumburg","establishment":null},"administrativeLevels":{"level3long":"Schaumburg Township","level3short":"Schaumburg Township","level2long":"Cook County","level2short":"Cook County","level1long":"Illinois","level1short":"IL"},"streetNumber":"1800","streetName":"McConnor Parkway","city":"Schaumburg","country":"United States","countryCode":"US","zipcode":"60173","provider":"google"}}},{"value":"569","name":"Norfolk, VA","storePageUrl":"https://www.ikea.com/us/en/stores/norfolk/","storeAddress":{"address":"1500 IKEA Way","cityName":"Norfolk","displayAddress":"1500 IKEA Way, Norfolk","position":{"formattedAddress":"1500 Ikea Way, Norfolk, VA 23502, USA","latitude":36.8760812,"longitude":-76.20137609999999,"extra":{"googlePlaceId":"ChIJUQDAM4uWuokRN2oXGU5jmCQ","confidence":1,"premise":null,"subpremise":null,"neighborhood":"Norfolk","establishment":null},"administrativeLevels":{"level1long":"Virginia","level1short":"VA"},"streetNumber":"1500","streetName":"Ikea Way","city":"Norfolk","country":"United States","countryCode":"US","zipcode":"23502","provider":"google"}}},{"value":"103","name":"Draper, UT","storePageUrl":"https://www.ikea.com/us/en/stores/draper/","storeAddress":{"address":"67 West IKEA Way","cityName":"Draper","displayAddress":"67 West IKEA Way, Draper","position":{"formattedAddress":"67 Ikea Way, Draper, UT 84020, USA","latitude":40.5086171,"longitude":-111.8931892,"extra":{"googlePlaceId":"ChIJzcyU2S-HUocRlZY-2RKrxWI","confidence":1,"premise":null,"subpremise":null,"neighborhood":"Draper","establishment":null},"administrativeLevels":{"level2long":"Salt Lake County","level2short":"Salt Lake County","level1long":"Utah","level1short":"UT"},"streetNumber":"67","streetName":"Ikea Way","city":"Draper","country":"United States","countryCode":"US","zipcode":"84020","provider":"google"}}},{"value":"213","name":"New Haven, CT","storePageUrl":"https://www.ikea.com/us/en/stores/new-haven/","storeAddress":{"address":"450 Sargent Drive","cityName":"New Haven","displayAddress":"450 Sargent Drive, New Haven","position":{"formattedAddress":"450 Sargent Dr, New Haven, CT 06511, USA","latitude":41.2958017,"longitude":-72.9200335,"extra":{"googlePlaceId":"ChIJ26LnhjfY54kRbATVvO-J9VY","confidence":1,"premise":null,"subpremise":null,"neighborhood":"Long Wharf","establishment":null},"administrativeLevels":{"level2long":"New Haven County","level2short":"New Haven County","level1long":"Connecticut","level1short":"CT"},"streetNumber":"450","streetName":"Sargent Drive","city":"New Haven","country":"United States","countryCode":"US","zipcode":"06511","provider":"google"}}},{"value":"145","name":"Orlando, FL","storePageUrl":"https://www.ikea.com/us/en/stores/orlando/","storeAddress":{"address":"4092 Eastgate Dr","cityName":"Orlando","displayAddress":"4092 Eastgate Dr, Orlando","position":{"formattedAddress":"4092 Eastgate Dr, Orlando, FL 32839, USA","latitude":28.4829579,"longitude":-81.4266415,"extra":{"googlePlaceId":"ChIJHdprZx1854gRBVXix6tSzoo","confidence":1,"premise":null,"subpremise":null,"neighborhood":"Southwest Orlando","establishment":null},"administrativeLevels":{"level2long":"Orange County","level2short":"Orange County","level1long":"Florida","level1short":"FL"},"streetNumber":"4092","streetName":"Eastgate Drive","city":"Orlando","country":"United States","countryCode":"US","zipcode":"32839","provider":"google"}}},{"value":"027","name":"Round Rock, TX","storePageUrl":"https://www.ikea.com/us/en/stores/round-rock/","storeAddress":{"address":"1 IKEA Way","cityName":"Round Rock","displayAddress":"1 IKEA Way, Round Rock","position":{"formattedAddress":"1 Ikea Way, Round Rock, TX 78665, USA","latitude":30.5578282,"longitude":-97.6897453,"extra":{"googlePlaceId":"ChIJe5BS9lzRRIYRmjYWxDMYdBo","confidence":1,"premise":null,"subpremise":null,"neighborhood":"East Chandler Rd Retail","establishment":null},"administrativeLevels":{"level2long":"Williamson County","level2short":"Williamson County","level1long":"Texas","level1short":"TX"},"streetNumber":"1","streetName":"Ikea Way","city":"Round Rock","country":"United States","countryCode":"US","zipcode":"78665","provider":"google"}}},{"value":"622","name":"Queens, NY","storePageUrl":"https://www.ikea.com/us/en/stores/queens/","storeAddress":{"address":"96-05 Queens Blvd","cityName":"Queens","displayAddress":"96-05 Queens Blvd, Queens","position":{"formattedAddress":"96-05 Queens Blvd, Rego Park, NY 11374, USA","latitude":40.731424,"longitude":-73.8618461,"extra":{"googlePlaceId":"ChIJx-5w7TZewokRIUFdAVdh9KM","confidence":1,"premise":null,"subpremise":null,"neighborhood":"Rego Park","establishment":null},"administrativeLevels":{"level2long":"Queens County","level2short":"Queens County","level1long":"New York","level1short":"NY"},"streetNumber":"96-05","streetName":"Queens Boulevard","country":"United States","countryCode":"US","zipcode":"11374","provider":"google"}}},{"value":"409","name":"Paramus, NJ","storePageUrl":"https://www.ikea.com/us/en/stores/paramus/","storeAddress":{"address":"100 IKEA Drive","cityName":"Paramus","displayAddress":"100 IKEA Drive, Paramus","position":{"formattedAddress":"100 Ikea Dr, Paramus, NJ 07652, USA","latitude":40.9245349,"longitude":-74.07328609999999,"extra":{"googlePlaceId":"ChIJ5Wjjl1X6wokR-eRyN4J_DeM","confidence":1,"premise":null,"subpremise":null,"neighborhood":"Paramus","establishment":null},"administrativeLevels":{"level2long":"Bergen County","level2short":"Bergen County","level1long":"New Jersey","level1short":"NJ"},"streetNumber":"100","streetName":"Ikea Drive","city":"Paramus","country":"United States","countryCode":"US","zipcode":"07652","provider":"google"}}},{"value":"028","name":"Portland, OR","storePageUrl":"https://www.ikea.com/us/en/stores/portland/","storeAddress":{"address":"10280 NE Cascades Parkway","cityName":"Portland","displayAddress":"10280 NE Cascades Parkway, Portland","position":{"formattedAddress":"Parking lot, 10280 NE Cascades Pkwy, Portland, OR 97220, USA","latitude":45.5712001,"longitude":-122.5535877,"extra":{"googlePlaceId":"ChIJvUtEawuklVQRNEjfvLVTzFg","confidence":1,"premise":"Parking lot","subpremise":null,"neighborhood":"Northeast Portland","establishment":null},"administrativeLevels":{"level2long":"Multnomah County","level2short":"Multnomah County","level1long":"Oregon","level1short":"OR"},"streetNumber":"10280","streetName":"Northeast Cascades Parkway","city":"Portland","country":"United States","countryCode":"US","zipcode":"97220","provider":"google"}}},{"value":"215","name":"South Philadelphia, PA","storePageUrl":"https://www.ikea.com/us/en/stores/south-philadelphia/","storeAddress":{"address":"2206 S. Christopher Columbus Blvd","cityName":"Philadelphia","displayAddress":"2206 S. Christopher Columbus Blvd, Philadelphia","position":{"formattedAddress":"2206 S Christopher Columbus Blvd, Philadelphia, PA 19148, USA","latitude":39.9171256,"longitude":-75.14176859999999,"extra":{"googlePlaceId":"ChIJeUTKxrLIxokRlvPC-uJW5KA","confidence":1,"premise":null,"subpremise":null,"neighborhood":"South Philadelphia","establishment":null},"administrativeLevels":{"level2long":"Philadelphia County","level2short":"Philadelphia County","level1long":"Pennsylvania","level1short":"PA"},"streetNumber":"2206","streetName":"South Christopher Columbus Boulevard","city":"Philadelphia","country":"United States","countryCode":"US","zipcode":"19148","provider":"google"}}},{"value":"042","name":"Tampa, FL","storePageUrl":"https://www.ikea.com/us/en/stores/tampa/","storeAddress":{"address":"1103 N. 22nd Street","cityName":"Tampa","displayAddress":"1103 N. 22nd Street, Tampa","position":{"formattedAddress":"1103 N 22nd St, Tampa, FL 33605, USA","latitude":27.9542754,"longitude":-82.43160189999999,"extra":{"googlePlaceId":"ChIJN8Jv1FTEwogRqEfze-skP84","confidence":1,"premise":null,"subpremise":null,"neighborhood":"Ybor City","establishment":null},"administrativeLevels":{"level2long":"Hillsborough County","level2short":"Hillsborough County","level1long":"Florida","level1short":"FL"},"streetNumber":"1103","streetName":"North 22nd Street","city":"Tampa","country":"United States","countryCode":"US","zipcode":"33605","provider":"google"}}},{"value":"152","name":"Baltimore, MD","storePageUrl":"https://www.ikea.com/us/en/stores/baltimore/","storeAddress":{"address":"8352 Honeygo Boulevard","cityName":"Baltimore","displayAddress":"8352 Honeygo Boulevard, Baltimore","position":{"formattedAddress":"8352 Honeygo Blvd, Nottingham, MD 21236, USA","latitude":39.3753517,"longitude":-76.4619125,"extra":{"googlePlaceId":"ChIJge9CZiEIyIkRMU6uCo94N_0","confidence":1,"premise":null,"subpremise":null,"neighborhood":"Nottingham","establishment":null},"administrativeLevels":{"level2long":"Baltimore County","level2short":"Baltimore County","level1long":"Maryland","level1short":"MD"},"streetNumber":"8352","streetName":"Honeygo Boulevard","city":"Nottingham","country":"United States","countryCode":"US","zipcode":"21236","provider":"google"}}},{"value":"570","name":"Live Oak, TX","storePageUrl":"https://www.ikea.com/us/en/stores/live-oak/","storeAddress":{"address":"1000 IKEA RBFCU Parkway","cityName":"Live Oak","displayAddress":"1000 IKEA RBFCU Parkway, Live Oak","position":{"formattedAddress":"1000 IKEA-RBFCU Pkwy, Live Oak, TX 78233, USA","latitude":29.5665157,"longitude":-98.3381062,"extra":{"googlePlaceId":"ChIJMaTxxA6NXIYRynTd6UyIB9o","confidence":1,"premise":null,"subpremise":null,"neighborhood":"Northeast Side","establishment":null},"administrativeLevels":{"level2long":"Bexar County","level2short":"Bexar County","level1long":"Texas","level1short":"TX"},"streetNumber":"1000","streetName":"IKEA-RBFCU Parkway","city":"Live Oak","country":"United States","countryCode":"US","zipcode":"78233","provider":"google"}}},{"value":"183","name":"Frisco, TX","storePageUrl":"https://www.ikea.com/us/en/stores/frisco/","storeAddress":{"address":"7171 IKEA Drive","cityName":"Frisco","displayAddress":"7171 IKEA Drive, Frisco","position":{"formattedAddress":"7171 Ikea Dr, Frisco, TX 75034, USA","latitude":33.0937506,"longitude":-96.82136679999999,"extra":{"googlePlaceId":"ChIJMS-6m708TIYRyBpdv3JiHdg","confidence":1,"premise":null,"subpremise":null,"neighborhood":"Frisco","establishment":null},"administrativeLevels":{"level2long":"Collin County","level2short":"Collin County","level1long":"Texas","level1short":"TX"},"streetNumber":"7171","streetName":"Ikea Drive","city":"Frisco","country":"United States","countryCode":"US","zipcode":"75034","provider":"google"}}},{"value":"156","name":"Long Island, NY","storePageUrl":"https://www.ikea.com/us/en/stores/long-island/","storeAddress":{"address":"1100 Broadway Mall","cityName":"Hicksville","displayAddress":"1100 Broadway Mall, Hicksville","position":{"formattedAddress":"1100 Broadway Mall, Hicksville, NY 11801, USA","latitude":40.7748094,"longitude":-73.53100529999999,"extra":{"googlePlaceId":"ChIJaxtJUhmBwokRp1o7tMMYsXc","confidence":1,"premise":null,"subpremise":null,"neighborhood":"Hicksville","establishment":null},"administrativeLevels":{"level3long":"Oyster Bay","level3short":"Oyster Bay","level2long":"Nassau County","level2short":"Nassau County","level1long":"New York","level1short":"NY"},"streetNumber":"1100","streetName":"Broadway Mall","city":"Hicksville","country":"United States","countryCode":"US","zipcode":"11801","provider":"google"}}},{"value":"560","name":"Oak Creek, WI","storePageUrl":"https://www.ikea.com/us/en/stores/oak-creek/","storeAddress":{"address":"7500 S. IKEA Way","cityName":"Oak Creek","displayAddress":"7500 S. IKEA Way, Oak Creek","position":{"formattedAddress":"7500 S Ikea Way, Oak Creek, WI 53154, USA","latitude":42.9076915,"longitude":-87.93868859999999,"extra":{"googlePlaceId":"ChIJ0Yaw9vMTBYgRWBS5_Hmdx5k","confidence":1,"premise":null,"subpremise":null,"neighborhood":"Oak Creek","establishment":null},"administrativeLevels":{"level2long":"Milwaukee County","level2short":"Milwaukee County","level1long":"Wisconsin","level1short":"WI"},"streetNumber":"7500","streetName":"South Ikea Way","city":"Oak Creek","country":"United States","countryCode":"US","zipcode":"53154","provider":"google"}}},{"value":"162","name":"Carson, CA","storePageUrl":"https://www.ikea.com/us/en/stores/carson/","storeAddress":{"address":"20700 South Avalon Boulevard","cityName":"Carson","displayAddress":"20700 South Avalon Boulevard, Carson","position":{"formattedAddress":"20700 S Avalon Blvd, Carson, CA 90746, USA","latitude":33.8439058,"longitude":-118.2609355,"extra":{"googlePlaceId":"ChIJay2yZiQ13YARyyg0jH_4QDA","confidence":1,"premise":null,"subpremise":null,"neighborhood":"Carson","establishment":null},"administrativeLevels":{"level2long":"Los Angeles County","level2short":"Los Angeles County","level1long":"California","level1short":"CA"},"streetNumber":"20700","streetName":"South Avalon Boulevard","city":"Carson","country":"United States","countryCode":"US","zipcode":"90746","provider":"google"}}},{"value":"157","name":"West Sacramento, CA","storePageUrl":"https://www.ikea.com/us/en/stores/west-sacramento/","storeAddress":{"address":"700 IKEA Court","cityName":"West Sacramento","displayAddress":"700 IKEA Court, West Sacramento","position":{"formattedAddress":"700 Ikea Ct, West Sacramento, CA 95605, USA","latitude":38.5864966,"longitude":-121.5535913,"extra":{"googlePlaceId":"ChIJZzZSiz3UmoARoaec88-9B9s","confidence":1,"premise":null,"subpremise":null,"neighborhood":"West Sacramento","establishment":null},"administrativeLevels":{"level2long":"Yolo County","level2short":"Yolo County","level1long":"California","level1short":"CA"},"streetNumber":"700","streetName":"Ikea Court","city":"West Sacramento","country":"United States","countryCode":"US","zipcode":"95605","provider":"google"}}},{"value":"508","name":"Memphis, TN","storePageUrl":"https://www.ikea.com/us/en/stores/memphis/","storeAddress":{"address":"7900 IKEA Way","cityName":"Memphis","displayAddress":"7900 IKEA Way, Memphis","position":{"formattedAddress":"7900 Ikea Way, Cordova, TN 38016, USA","latitude":35.1902921,"longitude":-89.79868370000001,"extra":{"googlePlaceId":"ChIJ_y3ceL6df4gRoeKhQ3UJt8U","confidence":1,"premise":null,"subpremise":null,"neighborhood":"Cordova","establishment":null},"administrativeLevels":{"level2long":"Shelby County","level2short":"Shelby County","level1long":"Tennessee","level1short":"TN"},"streetNumber":"7900","streetName":"Ikea Way","city":"Memphis","country":"United States","countryCode":"US","zipcode":"38016","provider":"google"}}},{"value":"158","name":"Stoughton, MA","storePageUrl":"https://www.ikea.com/us/en/stores/stoughton/","storeAddress":{"address":"One IKEA Way","cityName":"Stoughton","displayAddress":"One IKEA Way, Stoughton","position":{"formattedAddress":"Ikea Way, Stoughton, MA, USA","latitude":42.1371268,"longitude":-71.0684562,"extra":{"googlePlaceId":"EhxJa2VhIFdheSwgU3RvdWdodG9uLCBNQSwgVVNBIi4qLAoUChIJx8bAEZKD5IkRQaCA8-Dz7UsSFAoSCc10PyCkhuSJEe2tTkwno8Dd","confidence":0.7,"premise":null,"subpremise":null,"neighborhood":"Stoughton","establishment":null},"administrativeLevels":{"level3long":"Sharon","level3short":"Sharon","level2long":"Norfolk County","level2short":"Norfolk County","level1long":"Massachusetts","level1short":"MA"},"streetName":"Ikea Way","city":"Stoughton","country":"United States","countryCode":"US","provider":"google"}}},{"value":"166","name":"San Diego, CA","storePageUrl":"https://www.ikea.com/us/en/stores/san-diego/","storeAddress":{"address":"2149 Fenton Parkway","cityName":"San Diego","displayAddress":"2149 Fenton Parkway, San Diego","position":{"formattedAddress":"2149 Fenton Pkwy, San Diego, CA 92108, USA","latitude":32.7801705,"longitude":-117.1262915,"extra":{"googlePlaceId":"ChIJOZh5VadV2YAR4Zh-2g32w5A","confidence":1,"premise":null,"subpremise":null,"neighborhood":"Mission Valley","establishment":null},"administrativeLevels":{"level2long":"San Diego County","level2short":"San Diego County","level1long":"California","level1short":"CA"},"streetNumber":"2149","streetName":"Fenton Parkway","city":"San Diego","country":"United States","countryCode":"US","zipcode":"92108","provider":"google"}}},{"value":"153","name":"Pittsburgh, PA","storePageUrl":"https://www.ikea.com/us/en/stores/pittsburgh/","storeAddress":{"address":"2001 Park Manor Boulevard","cityName":"Pittsburgh","displayAddress":"2001 Park Manor Boulevard, Pittsburgh","position":{"formattedAddress":"2001 Park Manor Blvd, Pittsburgh, PA 15205, USA","latitude":40.4517367,"longitude":-80.1681502,"extra":{"googlePlaceId":"ChIJC4uSCElZNIgR_XA8qNG4Xnk","confidence":1,"premise":null,"subpremise":null,"neighborhood":"Pittsburgh","establishment":null},"administrativeLevels":{"level3long":"Robinson Township","level3short":"Robinson Township","level2long":"Allegheny County","level2short":"Allegheny County","level1long":"Pennsylvania","level1short":"PA"},"streetNumber":"2001","streetName":"Park Manor Boulevard","city":"Pittsburgh","country":"United States","countryCode":"US","zipcode":"15205","provider":"google"}}},{"value":"347","name":"East Palo Alto, CA","storePageUrl":"https://www.ikea.com/us/en/stores/east-palo-alto/","storeAddress":{"address":"1700 East Bayshore Road","cityName":"East Palo Alto","displayAddress":"1700 East Bayshore Road, East Palo Alto","position":{"formattedAddress":"1700 E Bayshore Rd, East Palo Alto, CA 94303, USA","latitude":37.4611767,"longitude":-122.1394766,"extra":{"googlePlaceId":"ChIJfXXw93G7j4ARLtC9mpCMBL0","confidence":1,"premise":null,"subpremise":null,"neighborhood":"East Palo Alto","establishment":null},"administrativeLevels":{"level2long":"San Mateo County","level2short":"San Mateo County","level1long":"California","level1short":"CA"},"streetNumber":"1700","streetName":"East Bayshore Road","city":"East Palo Alto","country":"United States","countryCode":"US","zipcode":"94303","provider":"google"}}},{"value":"488","name":"Renton, WA","storePageUrl":"https://www.ikea.com/us/en/stores/renton/","storeAddress":{"address":"601 S.W. 41st Street","cityName":"Renton","displayAddress":"601 S.W. 41st Street, Renton","position":{"formattedAddress":"601 SW 41st St, Renton, WA 98057, USA","latitude":47.4426763,"longitude":-122.2280158,"extra":{"googlePlaceId":"ChIJvzmunR1dkFQRfp0PY5qW5S8","confidence":1,"premise":null,"subpremise":null,"neighborhood":"Renton","establishment":null},"administrativeLevels":{"level2long":"King County","level2short":"King County","level1long":"Washington","level1short":"WA"},"streetNumber":"601","streetName":"Southwest 41st Street","city":"Renton","country":"United States","countryCode":"US","zipcode":"98057","provider":"google"}}},{"value":"207","name":"Sunrise, FL","storePageUrl":"https://www.ikea.com/us/en/stores/sunrise/","storeAddress":{"address":"151 NW 136th Ave","cityName":"Sunrise","displayAddress":"151 NW 136th Ave, Sunrise","position":{"formattedAddress":"151 NW 136th Ave, Plantation, FL 33325, USA","latitude":26.1216542,"longitude":-80.3321033,"extra":{"googlePlaceId":"ChIJl8xmZLcJ2YgROaDLyrCJJ-Y","confidence":0.7,"premise":null,"subpremise":null,"neighborhood":"Plantation","establishment":null},"administrativeLevels":{"level2long":"Broward County","level2short":"Broward County","level1long":"Florida","level1short":"FL"},"streetNumber":"151","streetName":"Northwest 136th Avenue","city":"Plantation","country":"United States","countryCode":"US","zipcode":"33325","provider":"google"}}},{"value":"212","name":"Twin Cities, MN","storePageUrl":"https://www.ikea.com/us/en/stores/twin-cities/","storeAddress":{"address":"8000 IKEA Way","cityName":"Bloomington","displayAddress":"8000 IKEA Way, Bloomington","position":{"formattedAddress":"8000 Ikea Way, Bloomington, MN 55425, USA","latitude":44.8586403,"longitude":-93.2448492,"extra":{"googlePlaceId":"ChIJbR7nuWkv9ocRy6db_lLB6VQ","confidence":1,"premise":null,"subpremise":null,"neighborhood":"South Loop District","establishment":null},"administrativeLevels":{"level2long":"Hennepin County","level2short":"Hennepin County","level1long":"Minnesota","level1short":"MN"},"streetNumber":"8000","streetName":"Ikea Way","city":"Bloomington","country":"United States","countryCode":"US","zipcode":"55425","provider":"google"}}},{"value":"535","name":"Grand Prairie, TX","storePageUrl":"https://www.ikea.com/us/en/stores/grand-prairie/","storeAddress":{"address":"1000 IKEA Way","cityName":"Grand Prairie","displayAddress":"1000 IKEA Way, Grand Prairie","position":{"formattedAddress":"1000 IKEA Wy, Grand Prairie, TX 75052, USA","latitude":32.689321,"longitude":-97.02272099999999,"extra":{"googlePlaceId":"ChIJ7bIVYbuIToYRRrmwflCHt1U","confidence":1,"premise":null,"subpremise":null,"neighborhood":"Grand Prairie","establishment":null},"administrativeLevels":{"level2long":"Dallas County","level2short":"Dallas County","level1long":"Texas","level1short":"TX"},"streetNumber":"1000","streetName":"IKEA Way","city":"Grand Prairie","country":"United States","countryCode":"US","zipcode":"75052","provider":"google"}}},{"value":"379","name":"Houston, TX","storePageUrl":"https://www.ikea.com/us/en/stores/houston/","storeAddress":{"address":"7810 Katy Freeway","cityName":"Houston","displayAddress":"7810 Katy Freeway, Houston","position":{"formattedAddress":"7810 Katy Fwy, Houston, TX 77024, USA","latitude":29.7855758,"longitude":-95.4715555,"extra":{"googlePlaceId":"ChIJ6dHcDqTGQIYRM0KPlfDgP2Q","confidence":1,"premise":null,"subpremise":null,"neighborhood":"Northwest Houston","establishment":null},"administrativeLevels":{"level2long":"Harris County","level2short":"Harris County","level1long":"Texas","level1short":"TX"},"streetNumber":"7810","streetName":"Katy Freeway","city":"Houston","country":"United States","countryCode":"US","zipcode":"77024","provider":"google"}}},{"value":"410","name":"St. Louis, MO","storePageUrl":"https://www.ikea.com/us/en/stores/st-louis/","storeAddress":{"address":"1 IKEA Way","cityName":"St. Louis","displayAddress":"1 IKEA Way, St. Louis","position":{"formattedAddress":"1 Ikea Way, St. Louis, MO 63108, USA","latitude":38.6335827,"longitude":-90.2449962,"extra":{"googlePlaceId":"ChIJvzejSsC02IcRnx7d8k0cBAY","confidence":1,"premise":null,"subpremise":null,"neighborhood":"Central West End","establishment":null},"administrativeLevels":{"level1long":"Missouri","level1short":"MO"},"streetNumber":"1","streetName":"Ikea Way","city":"St. Louis","country":"United States","countryCode":"US","zipcode":"63108","provider":"google"}}}]
