[{"value":"122","name":"Gävle","storePageUrl":"https://www.ikea.com/se/sv/stores/gavle/","storeAddress":{"address":"Valbovägen 307","cityName":"Valbo","displayAddress":"Valbovägen 307, Valbo","position":{"formattedAddress":"Valbovägen 307, 818 32 Valbo, Sweden","latitude":60.63340059999999,"longitude":16.9953863,"extra":{"googlePlaceId":"ChIJw6oDHzvIYEYRpLMsm7-0qTA","confidence":1,"premise":null,"subpremise":null,"neighborhood":"Gävleborgs län","establishment":null},"administrativeLevels":{"level1long":"Gävleborgs län","level1short":"Gävleborgs län"},"streetNumber":"307","streetName":"Valbovägen","city":"Valbo","country":"Sweden","countryCode":"SE","zipcode":"818 32","provider":"google"}}},{"value":"248","name":"Borlänge","storePageUrl":"https://www.ikea.com/se/sv/stores/borlange/","storeAddress":{"address":"Norra Backagatan 1","cityName":"Borlänge","displayAddress":"Norra Backagatan 1, Borlänge","position":{"formattedAddress":"Norra Backagatan 1, 781 70 Borlänge, Sweden","latitude":60.4815399,"longitude":15.4213923,"extra":{"googlePlaceId":"ChIJv9pJ8Yd-Z0YRJOlZ1R92gXw","confidence":1,"premise":null,"subpremise":null,"neighborhood":"Paradiset-Nygårdarna","establishment":null},"administrativeLevels":{"level1long":"Dalarnas län","level1short":"Dalarnas län"},"streetNumber":"1","streetName":"Norra Backagatan","city":"Borlänge","country":"Sweden","countryCode":"SE","zipcode":"781 70","provider":"google"}}},{"value":"398","name":"Göteborg Bäckebol","storePageUrl":"https://www.ikea.com/se/sv/stores/goteborg-backebol/","storeAddress":{"address":"Transportgatan 23","cityName":"Hisings backa","displayAddress":"Transportgatan 23, Hisings backa","position":{"formattedAddress":"Transportgatan 23, 422 46 Hisings Backa, Sweden","latitude":57.7691209,"longitude":12.0016038,"extra":{"googlePlaceId":"ChIJ9dBSdBD1T0YRsglb4Axvcp8","confidence":1,"premise":null,"subpremise":null,"neighborhood":"Backa","establishment":null},"administrativeLevels":{"level1long":"Västra Götalands län","level1short":"Västra Götalands län"},"streetNumber":"23","streetName":"Transportgatan","city":"Hisings Backa","country":"Sweden","countryCode":"SE","zipcode":"422 46","provider":"google"}}},{"value":"014","name":"Göteborg Kållered","storePageUrl":"https://www.ikea.com/se/sv/stores/goteborg-kallered/","storeAddress":{"address":"Ekenleden 2","cityName":"Kållered","displayAddress":"Ekenleden 2, Kållered","position":{"formattedAddress":"Ekenleden 2, 428 36 Kållered, Sweden","latitude":57.60356119999999,"longitude":12.0476875,"extra":{"googlePlaceId":"ChIJD-s1JBjuT0YRUGQ9xRvWldo","confidence":1,"premise":null,"subpremise":null,"neighborhood":"Bölet","establishment":null},"administrativeLevels":{"level1long":"Västra Götalands län","level1short":"Västra Götalands län"},"streetNumber":"2","streetName":"Ekenleden","city":"Kållered","country":"Sweden","countryCode":"SE","zipcode":"428 36","provider":"google"}}},{"value":"469","name":"Kalmar","storePageUrl":"https://www.ikea.com/se/sv/stores/kalmar/","storeAddress":{"address":"Bilbyggarvägen","cityName":"Kalmar","displayAddress":"Bilbyggarvägen, Kalmar","position":{"formattedAddress":"Bilbyggarvägen, 393 56 Kalmar, Sweden","latitude":56.6841988,"longitude":16.3184369,"extra":{"googlePlaceId":"ChIJIY-nTpXRV0YRbtbKhHNkio4","confidence":0.7,"premise":null,"subpremise":null,"neighborhood":"Oxhagen","establishment":null},"administrativeLevels":{"level1long":"Kalmar län","level1short":"Kalmar län"},"streetName":"Bilbyggarvägen","city":"Kalmar","country":"Sweden","countryCode":"SE","zipcode":"393 56","provider":"google"}}},{"value":"468","name":"Helsingborg","storePageUrl":"https://www.ikea.com/se/sv/stores/helsingborg/","storeAddress":{"address":"Marknadsvägen 7","cityName":"Ödåkra","displayAddress":"Marknadsvägen 7, Ödåkra","position":{"formattedAddress":"Marknadsvägen 7, 260 36 Ödåkra-väla, Sweden","latitude":56.0923445,"longitude":12.7627231,"extra":{"googlePlaceId":"ChIJ_z43_XktUkYRs5jzeRyljBI","confidence":1,"premise":null,"subpremise":null,"neighborhood":"Skåne län","establishment":null},"administrativeLevels":{"level1long":"Skåne län","level1short":"Skåne län"},"streetNumber":"7","streetName":"Marknadsvägen","city":"Ödåkra-väla","country":"Sweden","countryCode":"SE","zipcode":"260 36","provider":"google"}}},{"value":"445","name":"Malmö","storePageUrl":"https://www.ikea.com/se/sv/stores/malmo/","storeAddress":{"address":"Kulthusgatan 1","cityName":"Malmö","displayAddress":"Kulthusgatan 1, Malmö","position":{"formattedAddress":"Kulthusgatan 1, 215 86 Malmö, Sweden","latitude":55.55248899999999,"longitude":12.9897427,"extra":{"googlePlaceId":"ChIJSYINBtygU0YRKj5ohHQITHg","confidence":1,"premise":null,"subpremise":null,"neighborhood":"Väster","establishment":null},"administrativeLevels":{"level1long":"Skåne län","level1short":"Skåne län"},"streetNumber":"1","streetName":"Kulthusgatan","city":"Malmö","country":"Sweden","countryCode":"SE","zipcode":"215 86","provider":"google"}}},{"value":"012","name":"Stockholm Kungens Kurva","storePageUrl":"https://www.ikea.com/se/sv/stores/stockholm-kungens-kurva/","storeAddress":{"address":"Ekgårdsvägen 1","cityName":"Kungens Kurva","displayAddress":"Ekgårdsvägen 1, Kungens Kurva","position":{"formattedAddress":"Ekgårdsvägen 1, 141 75 Kungens Kurva, Sweden","latitude":59.2724552,"longitude":17.9179712,"extra":{"googlePlaceId":"ChIJY_NF8bx2X0YR3JAZ0zAA2ko","confidence":1,"premise":null,"subpremise":null,"neighborhood":"Flemingsberg","establishment":null},"administrativeLevels":{"level1long":"Stockholms län","level1short":"Stockholms län"},"streetNumber":"1","streetName":"Ekgårdsvägen","city":"Kungens Kurva","country":"Sweden","countryCode":"SE","zipcode":"141 75","provider":"google"}}},{"value":"109","name":"Jönköping","storePageUrl":"https://www.ikea.com/se/sv/stores/jonkoping/","storeAddress":{"address":"A6 Center","cityName":"Jönköping","displayAddress":"A6 Center, Jönköping","position":{"formattedAddress":"Kompanigatan 36, 553 05 Jönköping, Sweden","latitude":57.77300270000001,"longitude":14.2044931,"extra":{"googlePlaceId":"ChIJMzCgL3ZtWkYRT77E4NPslDQ","confidence":1,"premise":null,"subpremise":null,"neighborhood":"Jönköpings län","establishment":null},"administrativeLevels":{"level1long":"Jönköpings län","level1short":"Jönköpings län"},"streetNumber":"36","streetName":"Kompanigatan","city":"Jönköping","country":"Sweden","countryCode":"SE","zipcode":"553 05","provider":"google"}}},{"value":"471","name":"Karlstad","storePageUrl":"https://www.ikea.com/se/sv/stores/karlstad/","storeAddress":{"address":"Bergviksvägen 43","cityName":"Karlstad","displayAddress":"Bergviksvägen 43, Karlstad","position":{"formattedAddress":"Bergviksvägen 43, 653 46 Karlstad, Sweden","latitude":59.3789148,"longitude":13.4196839,"extra":{"googlePlaceId":"ChIJSfJWtf2yXEYRe3lFs8c9tYw","confidence":1,"premise":null,"subpremise":null,"neighborhood":"Gruvlyckan","establishment":null},"administrativeLevels":{"level1long":"Värmlands län","level1short":"Värmlands län"},"streetNumber":"43","streetName":"Bergviksvägen","city":"Karlstad","country":"Sweden","countryCode":"SE","zipcode":"653 46","provider":"google"}}},{"value":"416","name":"Umeå","storePageUrl":"https://www.ikea.com/se/sv/stores/umea/","storeAddress":{"address":"Marknadsgatan 15","cityName":"UMEÅ","displayAddress":"Marknadsgatan 15, UMEÅ","position":{"formattedAddress":"Umeå Marknadsgatan, 904 21 Umeå, Sweden","latitude":63.80977900000001,"longitude":20.253921,"extra":{"googlePlaceId":"ChIJ1xb-fKRbfEYRyFilYbK3jYw","confidence":0.7,"premise":null,"subpremise":null,"neighborhood":"Teg","establishment":"Umeå Marknadsgatan"},"administrativeLevels":{"level1long":"Västerbottens län","level1short":"Västerbottens län"},"city":"Umeå","country":"Sweden","countryCode":"SE","zipcode":"904 21","provider":"google"}}},{"value":"070","name":"Uppsala","storePageUrl":"https://www.ikea.com/se/sv/stores/uppsala/","storeAddress":{"address":"Rapsgatan 3","cityName":"Uppsala","displayAddress":"Rapsgatan 3, Uppsala","position":{"formattedAddress":"Rapsgatan 3, 753 23 Uppsala, Sweden","latitude":59.84824219999999,"longitude":17.694211,"extra":{"googlePlaceId":"ChIJRU0zN0jJX0YRM2VnECDe8IQ","confidence":1,"premise":null,"subpremise":null,"neighborhood":"Boländerna","establishment":null},"administrativeLevels":{"level1long":"Uppsala län","level1short":"Uppsala län"},"streetNumber":"3","streetName":"Rapsgatan","city":"Uppsala","country":"Sweden","countryCode":"SE","zipcode":"753 23","provider":"google"}}},{"value":"470","name":"Haparanda","storePageUrl":"https://www.ikea.com/se/sv/stores/haparandatornio/","storeAddress":{"address":"Norrskensvägen 2","cityName":"Haparanda","displayAddress":"Norrskensvägen 2, Haparanda","position":{"formattedAddress":"Revontultentie 2, 96500 Rovaniemi, Finland","latitude":66.5080784,"longitude":25.6781663,"extra":{"googlePlaceId":"ChIJNY8wtoJLK0QRHWrmYTmlzXo","confidence":1,"premise":null,"subpremise":null,"neighborhood":"Rovaniemi","establishment":null},"administrativeLevels":{},"streetNumber":"2","streetName":"Revontultentie","city":"Rovaniemi","country":"Finland","countryCode":"FI","zipcode":"96500","provider":"google"}}},{"value":"017","name":"Linköping","storePageUrl":"https://www.ikea.com/se/sv/stores/linkoping/","storeAddress":{"address":"Västra Svedengatan 7","cityName":"Linköping","displayAddress":"Västra Svedengatan 7, Linköping","position":{"formattedAddress":"Västra Svedengatan 7, 581 28 Linköping, Sweden","latitude":58.4333166,"longitude":15.5860421,"extra":{"googlePlaceId":"ChIJi649iqxoWUYRYA4O4o4nkn0","confidence":1,"premise":null,"subpremise":null,"neighborhood":"Tornby","establishment":null},"administrativeLevels":{"level1long":"Östergötlands län","level1short":"Östergötlands län"},"streetNumber":"7","streetName":"Västra Svedengatan","city":"Linköping","country":"Sweden","countryCode":"SE","zipcode":"581 28","provider":"google"}}},{"value":"106","name":"Örebro","storePageUrl":"https://www.ikea.com/se/sv/stores/orebro/","storeAddress":{"address":"Kundvägen 2","cityName":"Örebro","displayAddress":"Kundvägen 2, Örebro","position":{"formattedAddress":"Kundvägen 2, 702 31 Örebro, Sweden","latitude":59.21294940000001,"longitude":15.1347063,"extra":{"googlePlaceId":"ChIJ5xduBjYTXEYR1xWRExxGBJg","confidence":1,"premise":null,"subpremise":null,"neighborhood":"Örebro län","establishment":null},"administrativeLevels":{"level1long":"Örebro län","level1short":"Örebro län"},"streetNumber":"2","streetName":"Kundvägen","city":"Örebro","country":"Sweden","countryCode":"SE","zipcode":"702 31","provider":"google"}}},{"value":"268","name":"Älmhult","storePageUrl":"https://www.ikea.com/se/sv/stores/almhult/","storeAddress":{"address":"Handelsvägen 4","cityName":"Älmhult","displayAddress":"Handelsvägen 4, Älmhult","position":{"formattedAddress":"Handelsvägen 4, 343 33 Älmhult, Sweden","latitude":56.5515468,"longitude":14.1580344,"extra":{"googlePlaceId":"EihIYW5kZWxzdsOkZ2VuIDQsIDM0MyAzMyDDhGxtaHVsdCwgU3dlZGVuIjASLgoUChIJeX3Ggro0UUYRPQiC-N87clUQBCoUChIJd4Q1nbA0UUYRAdaWae3eGwU","confidence":0.9,"premise":null,"subpremise":null,"neighborhood":"Kronobergs län","establishment":null},"administrativeLevels":{"level1long":"Kronobergs län","level1short":"Kronobergs län"},"streetNumber":"4","streetName":"Handelsvägen","city":"Älmhult","country":"Sweden","countryCode":"SE","zipcode":"343 33","provider":"google"}}},{"value":"019","name":"Stockholm Barkarby","storePageUrl":"https://www.ikea.com/se/sv/stores/stockholm-barkarby/","storeAddress":{"address":"Folkungavägen 50","cityName":"Barkarby","displayAddress":"Folkungavägen 50, Barkarby","position":{"formattedAddress":"Folkungavägen 50, 177 35 Järfälla, Sweden","latitude":59.4211115,"longitude":17.8590341,"extra":{"googlePlaceId":"ChIJ6UgsCWafX0YR-nWgRla33JA","confidence":1,"premise":null,"subpremise":null,"neighborhood":"Barkarby","establishment":null},"administrativeLevels":{"level1long":"Stockholms län","level1short":"Stockholms län"},"streetNumber":"50","streetName":"Folkungavägen","city":"Järfälla","country":"Sweden","countryCode":"SE","zipcode":"177 35","provider":"google"}}},{"value":"053","name":"Uddevalla","storePageUrl":"https://www.ikea.com/se/sv/stores/uddevalla/","storeAddress":{"address":"Östra Torpvägen 30","cityName":"UDDEVALLA","displayAddress":"Östra Torpvägen 30, UDDEVALLA","position":{"formattedAddress":"Torpvägen 30, 451 76 Uddevalla, Sweden","latitude":58.3560726,"longitude":11.8195808,"extra":{"googlePlaceId":"ChIJX5InyUYPRUYRHwyo_xvd3KM","confidence":1,"premise":null,"subpremise":null,"neighborhood":"Västra Götalands län","establishment":null},"administrativeLevels":{"level1long":"Västra Götalands län","level1short":"Västra Götalands län"},"streetNumber":"30","streetName":"Torpvägen","city":"Uddevalla","country":"Sweden","countryCode":"SE","zipcode":"451 76","provider":"google"}}},{"value":"467","name":"Sundsvall","storePageUrl":"https://www.ikea.com/se/sv/stores/sundsvall/","storeAddress":{"address":"Gesällvägen 3","cityName":"Sundsvall","displayAddress":"Gesällvägen 3, Sundsvall","position":{"formattedAddress":"Gesällvägen 3, 857 53 Sundsvall, Sweden","latitude":62.44445849999999,"longitude":17.3336725,"extra":{"googlePlaceId":"ChIJUw-oroJgZEYRyLbbMmKCC3Y","confidence":1,"premise":null,"subpremise":null,"neighborhood":"Skönsberg","establishment":null},"administrativeLevels":{"level1long":"Västernorrlands län","level1short":"Västernorrlands län"},"streetNumber":"3","streetName":"Gesällvägen","city":"Sundsvall","country":"Sweden","countryCode":"SE","zipcode":"857 53","provider":"google"}}},{"value":"020","name":"Västerås","storePageUrl":"https://www.ikea.com/se/sv/stores/vasteras/","storeAddress":{"address":"Domkraftsvägen 2","cityName":"Västerås","displayAddress":"Domkraftsvägen 2, Västerås","position":{"formattedAddress":"Domkraftsvägen 2, 197 40 Bro, Sweden","latitude":59.5227066,"longitude":17.623744,"extra":{"googlePlaceId":"ChIJ60Irf5ilX0YR0eY7ai8ic1E","confidence":1,"premise":null,"subpremise":null,"neighborhood":"Stockholms län","establishment":null},"administrativeLevels":{"level1long":"Stockholms län","level1short":"Stockholms län"},"streetNumber":"2","streetName":"Domkraftsvägen","city":"Bro","country":"Sweden","countryCode":"SE","zipcode":"197 40","provider":"google"}}}]
