[{"value":"388","name":"Linz Haid","storePageUrl":"https://www.ikea.com/at/de/stores/haid/","storeAddress":{"address":"IKEAplatz 1","cityName":"Haid","displayAddress":"IKEAplatz 1, Haid","position":{"formattedAddress":"Ikea-Platz 1, 4053 Ansfelden, Austria","latitude":48.1963166,"longitude":14.2477747,"extra":{"googlePlaceId":"ChIJKSIIHaGVc0cRVqBVMywHie4","confidence":1,"premise":null,"subpremise":null,"neighborhood":"Ansfelden","establishment":null},"administrativeLevels":{"level2long":"Linz-Land","level2short":"Linz-Land","level1long":"Oberösterreich","level1short":"Oberösterreich"},"streetNumber":"1","streetName":"Ikea-Platz","city":"Ansfelden","country":"Austria","countryCode":"AT","zipcode":"4053","provider":"google"}}},{"value":"155","name":"Klagenfurt","storePageUrl":"https://www.ikea.com/at/de/stores/klagenfurt/","storeAddress":{"address":"IKEA Platz 1","cityName":"Klagenfurt","displayAddress":"IKEA Platz 1, Klagenfurt","position":{"formattedAddress":"Ikea-Platz 1, 4053 Ansfelden, Austria","latitude":48.1972027,"longitude":14.2506719,"extra":{"googlePlaceId":"ChIJs5iOwKGVc0cRNAYr1iVV7Dk","confidence":1,"premise":null,"subpremise":null,"neighborhood":"Ansfelden","establishment":null},"administrativeLevels":{"level2long":"Linz-Land","level2short":"Linz-Land","level1long":"Oberösterreich","level1short":"Oberösterreich"},"streetNumber":"1","streetName":"Ikea-Platz","city":"Ansfelden","country":"Austria","countryCode":"AT","zipcode":"4053","provider":"google"}}},{"value":"273","name":"Innsbruck","storePageUrl":"https://www.ikea.com/at/de/stores/innsbruck/","storeAddress":{"address":"Amraser-See-Straße 56 C","cityName":"Innsbruck","displayAddress":"Amraser-See-Straße 56 C, Innsbruck","position":{"formattedAddress":"Amraser-See-Straße 56c, 6020 Innsbruck, Austria","latitude":47.261227,"longitude":11.4318657,"extra":{"googlePlaceId":"ChIJ08AmqTBpnUcRUjF88q6v7ZU","confidence":1,"premise":null,"subpremise":null,"neighborhood":"Innsbruck","establishment":null},"administrativeLevels":{"level2long":"Innsbruck","level2short":"Innsbruck","level1long":"Tirol","level1short":"Tirol"},"streetNumber":"56c","streetName":"Amraser-See-Straße","city":"Innsbruck","country":"Austria","countryCode":"AT","zipcode":"6020","provider":"google"}}},{"value":"090","name":"Wien Nord","storePageUrl":"https://www.ikea.com/at/de/stores/wien-nord/","storeAddress":{"address":"Sverigestrasse 1 A","cityName":"Wien","displayAddress":"Sverigestrasse 1 A, Wien","position":{"formattedAddress":"Sverigestraße 1/a, 1220 Wien, Austria","latitude":48.2540545,"longitude":16.4709734,"extra":{"googlePlaceId":"EiZTdmVyaWdlc3RyYcOfZSAxL2EsIDEyMjAgV2llbiwgQXVzdHJpYSI3GjUKMBIuChQKEglR24iVVgFtRxHnSyeC9KpSBxABKhQKEgl7_lRjVgFtRxGk8pk_Ea7L1hIBYQ","confidence":0.9,"premise":null,"subpremise":"a","neighborhood":"Donaustadt","establishment":null},"administrativeLevels":{"level2long":"Wien","level2short":"Wien","level1long":"Wien","level1short":"Wien"},"streetNumber":"1","streetName":"Sverigestraße","city":"Wien","country":"Austria","countryCode":"AT","zipcode":"1220","provider":"google"}}},{"value":"587","name":"Wien Westbahnhof","storePageUrl":"https://www.ikea.com/at/de/stores/wien-westbahnhof/","storeAddress":{"address":"Europaplatz 1","cityName":"Wien","displayAddress":"Europaplatz 1, Wien","position":{"formattedAddress":"Europaplatz 1, 1150 Wien, Austria","latitude":48.19673600000001,"longitude":16.3375209,"extra":{"googlePlaceId":"ChIJ1XEmmvUHbUcRSVX_9FPZhWU","confidence":1,"premise":null,"subpremise":null,"neighborhood":"Rudolfsheim-Fünfhaus","establishment":null},"administrativeLevels":{"level2long":"Wien","level2short":"Wien","level1long":"Wien","level1short":"Wien"},"streetNumber":"1","streetName":"Europaplatz","city":"Wien","country":"Austria","countryCode":"AT","zipcode":"1150","provider":"google"}}},{"value":"386","name":"Salzburg","storePageUrl":"https://www.ikea.com/at/de/stores/salzburg/","storeAddress":{"address":"Europastraße 5","cityName":"Salzburg","displayAddress":"Europastraße 5, Salzburg","position":{"formattedAddress":"Europastraße, Salzburg, Austria","latitude":47.8169685,"longitude":13.0041492,"extra":{"googlePlaceId":"EiBFdXJvcGFzdHJhw59lLCBTYWx6YnVyZywgQXVzdHJpYSIuKiwKFAoSCeOS_9b_j3ZHEWP-eT3xWbpfEhQKEgmx1Aip3Zp2RxE99ypBoYPhwQ","confidence":0.7,"premise":null,"subpremise":null,"neighborhood":"Salzburg","establishment":null},"administrativeLevels":{"level2long":"Salzburg","level2short":"Salzburg","level1long":"Salzburg","level1short":"Salzburg"},"streetName":"Europastraße","city":"Salzburg","country":"Austria","countryCode":"AT","provider":"google"}}},{"value":"085","name":"Vösendorf","storePageUrl":"https://www.ikea.com/at/de/stores/wien-voesendorf/","storeAddress":{"address":"Shopping City Süd","cityName":"Vösendorf","displayAddress":"Shopping City Süd, Vösendorf","position":{"formattedAddress":"Vösendorfer Südring, 2334 Vösendorf, Austria","latitude":48.10802839999999,"longitude":16.3179302,"extra":{"googlePlaceId":"ChIJceoSBSuvbUcR2MZ4HqEEkz8","confidence":0.7,"premise":null,"subpremise":null,"neighborhood":"Vösendorf","establishment":null},"administrativeLevels":{"level2long":"Mödling","level2short":"Mödling","level1long":"Niederösterreich","level1short":"Niederösterreich"},"streetName":"Vösendorfer Südring","city":"Vösendorf","country":"Austria","countryCode":"AT","zipcode":"2334","provider":"google"}}},{"value":"387","name":"Graz","storePageUrl":"https://www.ikea.com/at/de/stores/graz/","storeAddress":{"address":"Weblinger Gürtel 31","cityName":"Graz","displayAddress":"Weblinger Gürtel 31, Graz","position":{"formattedAddress":"Weblinger Gürtel 31, 8054 Graz, Austria","latitude":47.0335736,"longitude":15.4232137,"extra":{"googlePlaceId":"ChIJZ73n06rKb0cR9vnfAjKQ_h4","confidence":1,"premise":null,"subpremise":null,"neighborhood":"Puntigam","establishment":null},"administrativeLevels":{"level2long":"Graz","level2short":"Graz","level1long":"Steiermark","level1short":"Steiermark"},"streetNumber":"31","streetName":"Weblinger Gürtel","city":"Graz","country":"Austria","countryCode":"AT","zipcode":"8054","provider":"google"}}}]
