[
{"value":"415","name":"Amersfoort","storePageUrl":"https://www.ikea.com/nl/nl/stores/amersfoort/","storeAddress":{"address":"Euroweg 101","cityName":"Amersfoort","displayAddress":"Euroweg 101, Amersfoort","position":{"formattedAddress":"Euroweg 101, 3825 HB Amersfoort, Netherlands","latitude":52.18492579999999,"longitude":5.418285900000001,"extra":{"googlePlaceId":"ChIJz2kxEfhGxkcRB--L0W0VFH0","confidence":1,"premise":null,"subpremise":null,"neighborhood":"De Hoef","establishment":null},"administrativeLevels":{"level2long":"Amersfoort","level2short":"Amersfoort","level1long":"Utrecht","level1short":"UT"},"streetNumber":"101","streetName":"Euroweg","city":"Amersfoort","country":"Netherlands","countryCode":"NL","zipcode":"3825 HB","provider":"google"}}},
{"value":"404","name":"Groningen","storePageUrl":"https://www.ikea.com/nl/nl/stores/groningen/","storeAddress":{"address":"Sontweg 9","cityName":"Groningen","displayAddress":"Sontweg 9, Groningen","position":{"formattedAddress":"Sontweg 9, 9723 AT Groningen, Netherlands","latitude":53.2163784,"longitude":6.5901653,"extra":{"googlePlaceId":"ChIJ-S4bLa7SyUcRpBg5Opc8WvE","confidence":1,"premise":null,"subpremise":null,"neighborhood":"Oosterpoortwijk","establishment":null},"administrativeLevels":{"level2long":"Groningen","level2short":"Groningen","level1long":"Groningen","level1short":"GR"},"streetNumber":"9","streetName":"Sontweg","city":"Groningen","country":"Netherlands","countryCode":"NL","zipcode":"9723 AT","provider":"google"}}},
{"value":"088","name":"Amsterdam","storePageUrl":"https://www.ikea.com/nl/nl/stores/amsterdam/","storeAddress":{"address":"Hullenbergweg 2","cityName":"Amsterdam","displayAddress":"Hullenbergweg 2, Amsterdam","position":{"formattedAddress":"Hullenbergweg 2, 1101 BL Amsterdam, Netherlands","latitude":52.3028027,"longitude":4.949824599999999,"extra":{"googlePlaceId":"ChIJZfo4Kp0LxkcRlPgnu3DA8FI","confidence":1,"premise":null,"subpremise":null,"neighborhood":"Amsterdam-Zuidoost","establishment":null},"administrativeLevels":{"level2long":"Amsterdam","level2short":"Amsterdam","level1long":"Noord-Holland","level1short":"NH"},"streetNumber":"2","streetName":"Hullenbergweg","city":"Amsterdam","country":"Netherlands","countryCode":"NL","zipcode":"1101 BL","provider":"google"}}},
{"value":"391","name":"Zwolle","storePageUrl":"https://www.ikea.com/nl/nl/stores/zwolle/","storeAddress":{"address":"Diepholtstraat 3","cityName":"Zwolle","displayAddress":"Diepholtstraat 3, Zwolle","position":{"formattedAddress":"Diepholtstraat 3, 8028 PN Zwolle, Netherlands","latitude":52.5327411,"longitude":6.1624719,"extra":{"googlePlaceId":"ChIJ32acko3fx0cRIbijkFnbR7Y","confidence":1,"premise":null,"subpremise":null,"neighborhood":"Zwolle","establishment":null},"administrativeLevels":{"level2long":"Zwolle","level2short":"Zwolle","level1long":"Overijssel","level1short":"OV"},"streetNumber":"3","streetName":"Diepholtstraat","city":"Zwolle","country":"Netherlands","countryCode":"NL","zipcode":"8028 PN","provider":"google"}}},
{"value":"274","name":"Barendrecht","storePageUrl":"https://www.ikea.com/nl/nl/stores/barendrecht-rotterdam/","storeAddress":{"address":"Hamburg 1","cityName":"Barendrecht","displayAddress":"Hamburg 1, Barendrecht","position":{"formattedAddress":"Hamburg 1, 2993 LG Barendrecht, Netherlands","latitude":51.8496326,"longitude":4.5129345,"extra":{"googlePlaceId":"ChIJ0Q9pF34xxEcRPQ1lFnf2ZZU","confidence":1,"premise":null,"subpremise":null,"neighborhood":"Barendrecht","establishment":null},"administrativeLevels":{"level2long":"Barendrecht","level2short":"Barendrecht","level1long":"Zuid-Holland","level1short":"ZH"},"streetNumber":"1","streetName":"Hamburg","city":"Barendrecht","country":"Netherlands","countryCode":"NL","zipcode":"2993 LG","provider":"google"}}},
{"value":"089","name":"Heerlen","storePageUrl":"https://www.ikea.com/nl/nl/stores/heerlen/","storeAddress":{"address":"In de Cramer 142","cityName":"Heerlen","displayAddress":"In de Cramer 142, Heerlen","position":{"formattedAddress":"In de Cramer 142, 6412 PM Heerlen, Netherlands","latitude":50.8993311,"longitude":5.945109899999999,"extra":{"googlePlaceId":"ChIJU33eltW9wEcRiynoA1Ba9A8","confidence":1,"premise":null,"subpremise":null,"neighborhood":"Heerlen","establishment":null},"administrativeLevels":{"level2long":"Heerlen","level2short":"Heerlen","level1long":"Limburg","level1short":"LI"},"streetNumber":"142","streetName":"In de Cramer","city":"Heerlen","country":"Netherlands","countryCode":"NL","zipcode":"6412 PM","provider":"google"}}},
{"value":"087","name":"Eindhoven","storePageUrl":"https://www.ikea.com/nl/nl/stores/eindhoven/","storeAddress":{"address":"Ekkersrijt 4089","cityName":"Son","displayAddress":"Ekkersrijt 4089, Son","position":{"formattedAddress":"Ekkersrijt 4089, 5692 DB Son, Netherlands","latitude":51.4979443,"longitude":5.4708108,"extra":{"googlePlaceId":"ChIJTS14X-vexkcR1v3nkF8OfFU","confidence":1,"premise":null,"subpremise":null,"neighborhood":"Son","establishment":null},"administrativeLevels":{"level2long":"Son en Breugel","level2short":"Son en Breugel","level1long":"Noord-Brabant","level1short":"NB"},"streetNumber":"4089","streetName":"Ekkersrijt","city":"Son","country":"Netherlands","countryCode":"NL","zipcode":"5692 DB","provider":"google"}}},
{"value":"378","name":"Haarlem","storePageUrl":"https://www.ikea.com/nl/nl/stores/haarlem/","storeAddress":{"address":"Laan van Decima 1","cityName":"Haarlem","displayAddress":"Laan van Decima 1, Haarlem","position":{"formattedAddress":"Laan van Decima 1, 2031 CX Haarlem, Netherlands","latitude":52.3846515,"longitude":4.6691246,"extra":{"googlePlaceId":"ChIJNbe-p4_lxUcRmgZDyLwNt3U","confidence":1,"premise":null,"subpremise":null,"neighborhood":"Haarlem-Oost","establishment":null},"administrativeLevels":{"level2long":"Haarlem","level2short":"Haarlem","level1long":"Noord-Holland","level1short":"NH"},"streetNumber":"1","streetName":"Laan van Decima","city":"Haarlem","country":"Netherlands","countryCode":"NL","zipcode":"2031 CX","provider":"google"}}},
{"value":"270","name":"Utrecht","storePageUrl":"https://www.ikea.com/nl/nl/stores/utrecht/","storeAddress":{"address":"Van Rensselaerlaan 7","cityName":"Utrecht","displayAddress":"Van Rensselaerlaan 7, Utrecht","position":{"formattedAddress":"Van Rensselaerlaan 7, 3526 AP Utrecht, Netherlands","latitude":52.0620194,"longitude":5.099589,"extra":{"googlePlaceId":"ChIJVeOItpVlxkcRIGoKoZ-xtO0","confidence":1,"premise":null,"subpremise":null,"neighborhood":"Zuid-West","establishment":null},"administrativeLevels":{"level2long":"Utrecht","level2short":"Utrecht","level1long":"Utrecht","level1short":"UT"},"streetNumber":"7","streetName":"Van Rensselaerlaan","city":"Utrecht","country":"Netherlands","countryCode":"NL","zipcode":"3526 AP","provider":"google"}}},
{"value":"272","name":"Duiven","storePageUrl":"https://www.ikea.com/nl/nl/stores/duiven/","storeAddress":{"address":"Biograaf 2","cityName":"Duiven","displayAddress":"Biograaf 2, Duiven","position":{"formattedAddress":"Biograaf 2, 6921 EV Duiven, Netherlands","latitude":51.9662661,"longitude":5.9972713,"extra":{"googlePlaceId":"ChIJM6Pu7sSjx0cRwy5IZWQHnR4","confidence":1,"premise":null,"subpremise":null,"neighborhood":"Duiven","establishment":null},"administrativeLevels":{"level2long":"Duiven","level2short":"Duiven","level1long":"Gelderland","level1short":"GE"},"streetNumber":"2","streetName":"Biograaf","city":"Duiven","country":"Netherlands","countryCode":"NL","zipcode":"6921 EV","provider":"google"}}},
{"value":"151","name":"Delft","storePageUrl":"https://www.ikea.com/nl/nl/stores/delft/","storeAddress":{"address":"OLOF PALMESTRAAT 1","cityName":"DELFT","displayAddress":"OLOF PALMESTRAAT 1, DELFT","position":{"formattedAddress":"Olof Palmestraat 1, 2616 LN Delft, Netherlands","latitude":52.01291399999999,"longitude":4.3816519,"extra":{"googlePlaceId":"ChIJKQA8yvC1xUcRl21elxFJ6fU","confidence":1,"premise":null,"subpremise":null,"neighborhood":"Delft","establishment":null},"administrativeLevels":{"level2long":"Delft","level2short":"Delft","level1long":"Zuid-Holland","level1short":"ZH"},"streetNumber":"1","streetName":"Olof Palmestraat","city":"Delft","country":"Netherlands","countryCode":"NL","zipcode":"2616 LN","provider":"google"}}},
{"value":"312","name":"Hengelo","storePageUrl":"https://www.ikea.com/nl/nl/stores/hengelo","storeAddress":{"address":"Het plein 100","cityName":"Hengelo","displayAddress":"Het plein 100, Hengelo","position":{"formattedAddress":"Het Plein 100, 7559 SR Hengelo, Netherlands","latitude":52.2886167,"longitude":6.768550200000001,"extra":{"googlePlaceId":"ChIJu5jUPzYOuEcRZH41GyIh2tI","confidence":1,"premise":null,"subpremise":null,"neighborhood":"Hengelo","establishment":null},"administrativeLevels":{"level2long":"Hengelo","level2short":"Hengelo","level1long":"Overijssel","level1short":"OV"},"streetNumber":"100","streetName":"Het Plein","city":"Hengelo","country":"Netherlands","countryCode":"NL","zipcode":"7559 SR","provider":"google"}}},
{"value":"403","name":"Breda","storePageUrl":"https://www.ikea.com/nl/nl/stores/breda/","storeAddress":{"address":"Kruisweide 1","cityName":"Breda","displayAddress":"Kruisweide 1, Breda","position":{"formattedAddress":"Kruisweide 1, 4814 RW Breda, Netherlands","latitude":51.58029270000001,"longitude":4.7284744,"extra":{"googlePlaceId":"ChIJg15m__wfxEcRvEWH-Wf-Jbo","confidence":1,"premise":null,"subpremise":null,"neighborhood":"Breda West","establishment":null},"administrativeLevels":{"level2long":"Breda","level2short":"Breda","level1long":"Noord-Brabant","level1short":"NB"},"streetNumber":"1","streetName":"Kruisweide","city":"Breda","country":"Netherlands","countryCode":"NL","zipcode":"4814 RW","provider":"google"}}}
]