[
    {"value":"117","name":"Braunschweig","storePageUrl":"https://www.ikea.com/de/de/stores/braunschweig/","storeAddress":{"address":"Hansestraße 27","cityName":"Braunschweig","displayAddress":"Hansestraße 27, Braunschweig","position":{"formattedAddress":"Hansestraße 27, 38112 Braunschweig, Germany","latitude":52.3090339,"longitude":10.5045591,"extra":{"googlePlaceId":"ChIJ4xMmwMX2r0cRBdwRsLgMSbs","confidence":1,"premise":null,"subpremise":null,"neighborhood":"Veltenhof-Rühme","establishment":null},"administrativeLevels":{"level3long":"Kreisfreie Stadt Braunschweig","level3short":"Kreisfreie Stadt Braunschweig","level1long":"Niedersachsen","level1short":"NDS"},"streetNumber":"27","streetName":"Hansestraße","city":"Braunschweig","country":"Germany","countryCode":"DE","zipcode":"38112","provider":"google"}}},
    {"value":"066","name":"Augsburg","storePageUrl":"https://www.ikea.com/de/de/stores/augsburg/","storeAddress":{"address":"Otto-Hahn-Straße 99","cityName":"Gersthofen","displayAddress":"Otto-Hahn-Straße 99, Gersthofen","position":{"formattedAddress":"Otto-Hahn-Straße 99, 86368 Gersthofen, Germany","latitude":48.4049028,"longitude":10.8713221,"extra":{"googlePlaceId":"ChIJSRVEf6q9nkcRHkIT1uX6SCk","confidence":1,"premise":null,"subpremise":null,"neighborhood":"Gersthofen","establishment":null},"administrativeLevels":{"level3long":"Augsburg","level3short":"A","level2long":"Schwaben","level2short":"Schwaben","level1long":"Bayern","level1short":"BY"},"streetNumber":"99","streetName":"Otto-Hahn-Straße","city":"Gersthofen","country":"Germany","countryCode":"DE","zipcode":"86368","provider":"google"}}},
    {"value":"129","name":"Berlin-Waltersdorf","storePageUrl":"https://www.ikea.com/de/de/stores/berlin-waltersdorf/","storeAddress":{"address":"Airport Center, Am Rondell 8","cityName":"Schönefeld","displayAddress":"Airport Center, Am Rondell 8, Schönefeld","position":{"formattedAddress":"Am Rondell 8, 12529 Schönefeld, Germany","latitude":52.3669971,"longitude":13.555876,"extra":{"googlePlaceId":"ChIJ93WVF0RHqEcRP2XIVI5PYME","confidence":1,"premise":null,"subpremise":null,"neighborhood":"Waltersdorf","establishment":null},"administrativeLevels":{"level3long":"Landkreis Dahme-Spreewald","level3short":"Landkreis Dahme-Spreewald","level1long":"Brandenburg","level1short":"BB"},"streetNumber":"8","streetName":"Am Rondell","city":"Schönefeld","country":"Germany","countryCode":"DE","zipcode":"12529","provider":"google"}}},
    {"value":"321","name":"Düsseldorf","storePageUrl":"https://www.ikea.com/de/de/stores/duesseldorf/","storeAddress":{"address":"Oerschbachstraße 75","cityName":"Düsseldorf","displayAddress":"Oerschbachstraße 75, Düsseldorf","position":{"formattedAddress":"Oerschbachstraße 75, 40589 Düsseldorf, Germany","latitude":51.1886003,"longitude":6.847976999999999,"extra":{"googlePlaceId":"ChIJwxlRBoDMuEcRll9hsk0TO1Y","confidence":1,"premise":null,"subpremise":null,"neighborhood":"Stadtbezirk 9","establishment":null},"administrativeLevels":{"level3long":"Düsseldorf","level3short":"Düsseldorf","level2long":"Düsseldorf","level2short":"Düsseldorf","level1long":"Nordrhein-Westfalen","level1short":"NRW"},"streetNumber":"75","streetName":"Oerschbachstraße","city":"Düsseldorf","country":"Germany","countryCode":"DE","zipcode":"40589","provider":"google"}}},
    {"value":"430","name":"Kaiserslautern","storePageUrl":"https://www.ikea.com/de/de/stores/kaiserslautern/","storeAddress":{"address":"Opelkreisel 3","cityName":"Kaiserslautern","displayAddress":"Opelkreisel 3, Kaiserslautern","position":{"formattedAddress":"Opelkreisel 3, 67663 Kaiserslautern, Germany","latitude":49.4399331,"longitude":7.699383399999999,"extra":{"googlePlaceId":"ChIJ0WbtAywNlkcR1V_sYr8kois","confidence":1,"premise":null,"subpremise":null,"neighborhood":"Kaiserslautern","establishment":null},"administrativeLevels":{"level3long":"Kreisfreie Stadt Kaiserslautern","level3short":"Kreisfreie Stadt Kaiserslautern","level1long":"Rheinland-Pfalz","level1short":"RP"},"streetNumber":"3","streetName":"Opelkreisel","city":"Kaiserslautern","country":"Germany","countryCode":"DE","zipcode":"67663","provider":"google"}}},
    {"value":"393","name":"Frankfurt","storePageUrl":"https://www.ikea.com/de/de/stores/frankfurt/","storeAddress":{"address":"Züricher Straße 7","cityName":"Frankfurt, Niedereschbach","displayAddress":"Züricher Straße 7, Frankfurt, Niedereschbach","position":{"formattedAddress":"Züricher Str. 7, 60437 Frankfurt am Main, Germany","latitude":50.1958783,"longitude":8.6570205,"extra":{"googlePlaceId":"ChIJjZsnfSYGvUcRTM4yvXlbdGE","confidence":1,"premise":null,"subpremise":null,"neighborhood":"Nieder-Eschbach","establishment":null},"administrativeLevels":{"level3long":"Kreisfreie Stadt Frankfurt am Main","level3short":"Kreisfreie Stadt Frankfurt am Main","level2long":"Darmstadt","level2short":"DA","level1long":"Hessen","level1short":"HE"},"streetNumber":"7","streetName":"Züricher Straße","city":"Frankfurt am Main","country":"Germany","countryCode":"DE","zipcode":"60437","provider":"google"}}},
    {"value":"174","name":"Kassel","storePageUrl":"https://www.ikea.com/de/de/stores/kassel/","storeAddress":{"address":"Heinrich-Hertz-Straße 25","cityName":"Kassel","displayAddress":"Heinrich-Hertz-Straße 25, Kassel","position":{"formattedAddress":"Heinrich-Hertz-Straße 25, 34123 Kassel, Germany","latitude":51.2776732,"longitude":9.5255785,"extra":{"googlePlaceId":"ChIJr5SNZnJHu0cRuO_68nNHFOw","confidence":1,"premise":null,"subpremise":null,"neighborhood":"Waldau","establishment":null},"administrativeLevels":{"level3long":"Kreisfreie Stadt Kassel","level3short":"Kreisfreie Stadt Kassel","level2long":"Kassel","level2short":"KS","level1long":"Hessen","level1short":"HE"},"streetNumber":"25","streetName":"Heinrich-Hertz-Straße","city":"Kassel","country":"Germany","countryCode":"DE","zipcode":"34123","provider":"google"}}},
    {"value":"148","name":"Essen","storePageUrl":"https://www.ikea.com/de/de/stores/essen/","storeAddress":{"address":"Altendorfer Strasse 2","cityName":"Essen","displayAddress":"Altendorfer Strasse 2, Essen","position":{"formattedAddress":"Altendorfer Str. 2, 45127 Essen, Germany","latitude":51.4603112,"longitude":7.000956599999999,"extra":{"googlePlaceId":"ChIJVSCoc7zCuEcR1HcnXf1HpOk","confidence":1,"premise":null,"subpremise":null,"neighborhood":"Stadtbezirke I","establishment":null},"administrativeLevels":{"level3long":"Essen","level3short":"Essen","level2long":"Düsseldorf","level2short":"Düsseldorf","level1long":"Nordrhein-Westfalen","level1short":"NRW"},"streetNumber":"2","streetName":"Altendorfer Straße","city":"Essen","country":"Germany","countryCode":"DE","zipcode":"45127","provider":"google"}}},
    {"value":"320","name":"Freiburg","storePageUrl":"https://www.ikea.com/de/de/stores/freiburg/","storeAddress":{"address":"Hermann-Mitsch-Straße 61","cityName":"Freiburg","displayAddress":"Hermann-Mitsch-Straße 61, Freiburg","position":{"formattedAddress":"Hermann-Mitsch-Straße 61, 79108 Freiburg im Breisgau, Germany","latitude":48.0286081,"longitude":7.8328693,"extra":{"googlePlaceId":"ChIJ3TG0OZQbkUcR6OVDm8_lCl8","confidence":1,"premise":null,"subpremise":null,"neighborhood":"Nord","establishment":null},"administrativeLevels":{"level3long":"Kreisfreie Stadt Freiburg im Breisgau","level3short":"Kreisfreie Stadt Freiburg im Breisgau","level2long":"Freiburg","level2short":"Freiburg","level1long":"Baden-Württemberg","level1short":"BW"},"streetNumber":"61","streetName":"Hermann-Mitsch-Straße","city":"Freiburg im Breisgau","country":"Germany","countryCode":"DE","zipcode":"79108","provider":"google"}}},
    {"value":"119","name":"Bielefeld","storePageUrl":"https://www.ikea.com/de/de/stores/bielefeld/","storeAddress":{"address":"Südring 7","cityName":"Bielefeld","displayAddress":"Südring 7, Bielefeld","position":{"formattedAddress":"Südring 7, 33647 Bielefeld, Germany","latitude":51.9822875,"longitude":8.4920524,"extra":{"googlePlaceId":"ChIJj7AbuLE8ukcR06I_rVDCJws","confidence":1,"premise":null,"subpremise":null,"neighborhood":"Brackwede","establishment":null},"administrativeLevels":{"level3long":"Kreisfreie Stadt Bielefeld","level3short":"Kreisfreie Stadt Bielefeld","level2long":"Detmold","level2short":"Detmold","level1long":"Nordrhein-Westfalen","level1short":"NRW"},"streetNumber":"7","streetName":"Südring","city":"Bielefeld","country":"Germany","countryCode":"DE","zipcode":"33647","provider":"google"}}},
    {"value":"222","name":"Hanau","storePageUrl":"https://www.ikea.com/de/de/stores/hanau/","storeAddress":{"address":"Oderstraße 21","cityName":"Hanau","displayAddress":"Oderstraße 21, Hanau","position":{"formattedAddress":"Oderstraße 21, 63452 Hanau, Germany","latitude":50.1496729,"longitude":8.942477,"extra":{"googlePlaceId":"ChIJI54MIHUXvUcRC5VeqG-g6RI","confidence":1,"premise":null,"subpremise":null,"neighborhood":"Hanau","establishment":null},"administrativeLevels":{"level3long":"Main-Kinzig-Kreis","level3short":"Main-Kinzig-Kreis","level2long":"Darmstadt","level2short":"DA","level1long":"Hessen","level1short":"HE"},"streetNumber":"21","streetName":"Oderstraße","city":"Hanau","country":"Germany","countryCode":"DE","zipcode":"63452","provider":"google"}}},
    {"value":"325","name":"Hamburg-Moorfleet","storePageUrl":"https://www.ikea.com/de/de/stores/hamburg-moorfleet/","storeAddress":{"address":"Unterer Landweg 77","cityName":"Hamburg, Moorfleet","displayAddress":"Unterer Landweg 77, Hamburg, Moorfleet","position":{"formattedAddress":"Unterer Landweg 77, 22113 Hamburg, Germany","latitude":53.5108913,"longitude":10.092743,"extra":{"googlePlaceId":"ChIJDzFXaKONsUcRaOZLAGAAeBw","confidence":1,"premise":null,"subpremise":null,"neighborhood":"Bezirk Bergedorf","establishment":null},"administrativeLevels":{"level3long":"Hamburg","level3short":"Hamburg","level1long":"Hamburg","level1short":"HH"},"streetNumber":"77","streetName":"Unterer Landweg","city":"Hamburg","country":"Germany","countryCode":"DE","zipcode":"22113","provider":"google"}}},
    {"value":"323","name":"Kamen","storePageUrl":"https://www.ikea.com/de/de/stores/kamen/","storeAddress":{"address":"Kamen Karree 1","cityName":"Kamen","displayAddress":"Kamen Karree 1, Kamen","position":{"formattedAddress":"Kamen Karree 1, 59174 Kamen, Germany","latitude":51.5693436,"longitude":7.6692708,"extra":{"googlePlaceId":"ChIJMz3h0ecSuUcR2A0Hz6hyk-I","confidence":1,"premise":null,"subpremise":null,"neighborhood":"Kamen","establishment":null},"administrativeLevels":{"level3long":"Unna","level3short":"Unna","level2long":"Arnsberg","level2short":"Arnsberg","level1long":"Nordrhein-Westfalen","level1short":"NRW"},"streetNumber":"1","streetName":"Kamen Karree","city":"Kamen","country":"Germany","countryCode":"DE","zipcode":"59174","provider":"google"}}},
    {"value":"245","name":"Hamburg-Altona","storePageUrl":"https://www.ikea.com/de/de/stores/hamburg-altona/","storeAddress":{"address":"Große Bergstrasse 164 (Einfahrt Parkhaus: Lawaetzweg 7)","cityName":"Hamburg-Altona","displayAddress":"Große Bergstrasse 164 (Einfahrt Parkhaus: Lawaetzweg 7), Hamburg-Altona","position":{"formattedAddress":"IKEA, Große Bergstraße 164, 22767 Hamburg, Germany","latitude":53.5514087,"longitude":9.941515299999999,"extra":{"googlePlaceId":"ChIJfd8iSn2PsUcRORTb2NbwKSE","confidence":1,"premise":null,"subpremise":null,"neighborhood":"Bezirk Altona","establishment":"IKEA"},"administrativeLevels":{"level3long":"Hamburg","level3short":"Hamburg","level1long":"Hamburg","level1short":"HH"},"streetNumber":"164","streetName":"Große Bergstraße","city":"Hamburg","country":"Germany","countryCode":"DE","zipcode":"22767","provider":"google"}}},
    {"value":"228","name":"Brinkum","storePageUrl":"https://www.ikea.com/de/de/stores/brinkum/","storeAddress":{"address":"Henleinstraße 1A","cityName":"Brinkum","displayAddress":"Henleinstraße 1A, Brinkum","position":{"formattedAddress":"Henleinstraße 1, 28816 Stuhr, Germany","latitude":53.0260658,"longitude":8.8015378,"extra":{"googlePlaceId":"ChIJD2BCgYPXsEcRUIjeniMoYzA","confidence":1,"premise":null,"subpremise":null,"neighborhood":"Brinkum","establishment":null},"administrativeLevels":{"level3long":"Landkreis Diepholz","level3short":"DH","level1long":"Niedersachsen","level1short":"NDS"},"streetNumber":"1","streetName":"Henleinstraße","city":"Stuhr","country":"Germany","countryCode":"DE","zipcode":"28816","provider":"google"}}},
    {"value":"223","name":"Dortmund","storePageUrl":"https://www.ikea.com/de/de/stores/dortmund/","storeAddress":{"address":"Borussiastraße 120","cityName":"Dortmund","displayAddress":"Borussiastraße 120, Dortmund","position":{"formattedAddress":"Borussiastraße 120, 44149 Dortmund, Germany","latitude":51.4913242,"longitude":7.3691002,"extra":{"googlePlaceId":"ChIJVwapqtkYuUcR_KsDETNGfE0","confidence":1,"premise":null,"subpremise":null,"neighborhood":"Lütgendortmund","establishment":null},"administrativeLevels":{"level3long":"Dortmund","level3short":"Dortmund","level2long":"Arnsberg","level2short":"Arnsberg","level1long":"Nordrhein-Westfalen","level1short":"NRW"},"streetNumber":"120","streetName":"Borussiastraße","city":"Dortmund","country":"Germany","countryCode":"DE","zipcode":"44149","provider":"google"}}},
    {"value":"396","name":"Erfurt","storePageUrl":"https://www.ikea.com/de/de/stores/erfurt/","storeAddress":{"address":"Eisenacher Straße 50","cityName":"Erfurt","displayAddress":"Eisenacher Straße 50, Erfurt","position":{"formattedAddress":"Eisenacher Str. 50, 99094 Erfurt, Germany","latitude":50.95949969999999,"longitude":10.9492057,"extra":{"googlePlaceId":"ChIJje3eKS1ypEcRiLdLWwsrhys","confidence":1,"premise":null,"subpremise":null,"neighborhood":"Schmira","establishment":null},"administrativeLevels":{"level3long":"Kreisfreie Stadt Erfurt","level3short":"Kreisfreie Stadt Erfurt","level1long":"Thüringen","level1short":"TH"},"streetNumber":"50","streetName":"Eisenacher Straße","city":"Erfurt","country":"Germany","countryCode":"DE","zipcode":"99094","provider":"google"}}},
    {"value":"412","name":"Bremerhaven","storePageUrl":"https://www.ikea.com/de/de/stores/bremerhaven/","storeAddress":{"address":"Weserstrasse 1i","cityName":"Bremerhaven","displayAddress":"Weserstrasse 1i, Bremerhaven","position":{"formattedAddress":"Weserstraße 1i, 27572 Bremerhaven, Germany","latitude":53.4895164,"longitude":8.6051598,"extra":{"googlePlaceId":"ChIJOb2SVJ62tkcRPY73xmpFoxY","confidence":1,"premise":null,"subpremise":null,"neighborhood":"Wulsdorf","establishment":null},"administrativeLevels":{"level3long":"Bremerhaven","level3short":"Bremerhaven","level1long":"Bremen","level1short":"HB"},"streetNumber":"1i","streetName":"Weserstraße","city":"Bremerhaven","country":"Germany","countryCode":"DE","zipcode":"27572","provider":"google"}}},
    {"value":"118","name":"Chemnitz","storePageUrl":"https://www.ikea.com/de/de/stores/chemnitz/","storeAddress":{"address":"Im Neefepark 5","cityName":"Chemnitz","displayAddress":"Im Neefepark 5, Chemnitz","position":{"formattedAddress":"Im Neefepark 5, 09116 Chemnitz, Germany","latitude":50.8027561,"longitude":12.8604809,"extra":{"googlePlaceId":"ChIJx1304HVIp0cRg09G1Y8olq8","confidence":1,"premise":null,"subpremise":null,"neighborhood":"Stelzendorf","establishment":null},"administrativeLevels":{"level3long":"Chemnitz","level3short":"Chemnitz","level1long":"Sachsen","level1short":"SN"},"streetNumber":"5","streetName":"Im Neefepark","city":"Chemnitz","country":"Germany","countryCode":"DE","zipcode":"09116","provider":"google"}}},
    {"value":"421","name":"Berlin-Tempelhof","storePageUrl":"https://www.ikea.com/de/de/stores/berlin-tempelhof/","storeAddress":{"address":"Sachsendamm 47","cityName":"Berlin,Tempelhof","displayAddress":"Sachsendamm 47, Berlin,Tempelhof","position":{"formattedAddress":"Sachsendamm 47, 10829 Berlin, Germany","latitude":52.4697548,"longitude":13.3665808,"extra":{"googlePlaceId":"ChIJUWqYYwVQqEcRVJhrNf8RIRI","confidence":1,"premise":null,"subpremise":null,"neighborhood":"Bezirk Tempelhof-Schöneberg","establishment":null},"administrativeLevels":{"level3long":"Kreisfreie Stadt Berlin","level3short":"Kreisfreie Stadt Berlin","level1long":"Berlin","level1short":"BE"},"streetNumber":"47","streetName":"Sachsendamm","city":"Berlin","country":"Germany","countryCode":"DE","zipcode":"10829","provider":"google"}}},
    {"value":"221","name":"Dresden","storePageUrl":"https://www.ikea.com/de/de/stores/dresden/","storeAddress":{"address":"Peschelstraße 25","cityName":"Dresden","displayAddress":"Peschelstraße 25, Dresden","position":{"formattedAddress":"Peschelstraße 25, 01139 Dresden, Germany","latitude":51.0864816,"longitude":13.6946902,"extra":{"googlePlaceId":"ChIJOTudU8rPCUcR1dwsBPcISPI","confidence":1,"premise":null,"subpremise":null,"neighborhood":"Pieschen","establishment":null},"administrativeLevels":{"level3long":"Dresden","level3short":"Dresden","level1long":"Sachsen","level1short":"SN"},"streetNumber":"25","streetName":"Peschelstraße","city":"Dresden","country":"Germany","countryCode":"DE","zipcode":"01139","provider":"google"}}},
    {"value":"394","name":"Berlin-Spandau","storePageUrl":"https://www.ikea.com/de/de/stores/berlin-spandau","storeAddress":{"address":"Gewerbehof 10","cityName":"Berlin - Spandau","displayAddress":"Gewerbehof 10, Berlin - Spandau","position":{"formattedAddress":"Gewerbehof 10, 13597 Berlin, Germany","latitude":52.5274624,"longitude":13.2149953,"extra":{"googlePlaceId":"ChIJqedhaFFWqEcRzrHx6MteTCw","confidence":1,"premise":null,"subpremise":null,"neighborhood":"Bezirk Spandau","establishment":null},"administrativeLevels":{"level3long":"Kreisfreie Stadt Berlin","level3short":"Kreisfreie Stadt Berlin","level1long":"Berlin","level1short":"BE"},"streetNumber":"10","streetName":"Gewerbehof","city":"Berlin","country":"Germany","countryCode":"DE","zipcode":"13597","provider":"google"}}},
    {"value":"324","name":"Berlin-Lichtenberg","storePageUrl":"https://www.ikea.com/de/de/stores/berlin-lichtenberg/","storeAddress":{"address":"Landsberger Allee 364","cityName":"Berlin, Lichtenberg","displayAddress":"Landsberger Allee 364, Berlin, Lichtenberg","position":{"formattedAddress":"Landsberger Allee 364, 10365 Berlin, Germany","latitude":52.5336292,"longitude":13.5128763,"extra":{"googlePlaceId":"ChIJF3UBhh5MqEcRRUYvlg46jB8","confidence":1,"premise":null,"subpremise":null,"neighborhood":"Bezirk Lichtenberg","establishment":null},"administrativeLevels":{"level3long":"Kreisfreie Stadt Berlin","level3short":"Kreisfreie Stadt Berlin","level1long":"Berlin","level1short":"BE"},"streetNumber":"364","streetName":"Landsberger Allee","city":"Berlin","country":"Germany","countryCode":"DE","zipcode":"10365","provider":"google"}}},
    {"value":"425","name":"Duisburg","storePageUrl":"https://www.ikea.com/de/de/stores/duisburg/","storeAddress":{"address":"Beecker Straße 80","cityName":"Duisburg","displayAddress":"Beecker Straße 80, Duisburg","position":{"formattedAddress":"Beecker Str. 80, 47166 Duisburg, Germany","latitude":51.4821721,"longitude":6.7638779,"extra":{"googlePlaceId":"ChIJXa5Jl9O_uEcRs5vJ6Rum-zs","confidence":1,"premise":null,"subpremise":null,"neighborhood":"Meiderich/Beeck","establishment":null},"administrativeLevels":{"level3long":"Duisburg","level3short":"Duisburg","level2long":"Düsseldorf","level2short":"Düsseldorf","level1long":"Nordrhein-Westfalen","level1short":"NRW"},"streetNumber":"80","streetName":"Beecker Straße","city":"Duisburg","country":"Germany","countryCode":"DE","zipcode":"47166","provider":"google"}}},
    {"value":"187","name":"Hannover EXPO-Park","storePageUrl":"https://www.ikea.com/de/de/stores/hannover-expo-park/","storeAddress":{"address":"Straße der Nationen 10","cityName":"Hannover","displayAddress":"Straße der Nationen 10, Hannover","position":{"formattedAddress":"Str. d. Nationen 10, 30539 Hannover, Germany","latitude":52.313743,"longitude":9.8169591,"extra":{"googlePlaceId":"ChIJd1lOKhUKsEcRQ4iSEvbPDns","confidence":1,"premise":null,"subpremise":null,"neighborhood":"Kirchrode-Bemerode-Wülferode","establishment":null},"administrativeLevels":{"level3long":"Region Hannover","level3short":"Region Hannover","level1long":"Niedersachsen","level1short":"NDS"},"streetNumber":"10","streetName":"Straße der Nationen","city":"Hannover","country":"Germany","countryCode":"DE","zipcode":"30539","provider":"google"}}},
    {"value":"226","name":"Großburgwedel","storePageUrl":"https://www.ikea.com/de/de/stores/grossburgwedel/","storeAddress":{"address":"Isernhägener Straße 14","cityName":"Burgwedel, Hannover","displayAddress":"Isernhägener Straße 14, Burgwedel, Hannover","position":{"formattedAddress":"Isernhägener Str. 14, 30938 Burgwedel, Germany","latitude":52.492312,"longitude":9.837634500000002,"extra":{"googlePlaceId":"ChIJswHw-vESsEcRXiQWg3dLCys","confidence":1,"premise":null,"subpremise":null,"neighborhood":"Großburgwedel","establishment":null},"administrativeLevels":{"level3long":"Region Hannover","level3short":"Region Hannover","level1long":"Niedersachsen","level1short":"NDS"},"streetNumber":"14","streetName":"Isernhägener Straße","city":"Burgwedel","country":"Germany","countryCode":"DE","zipcode":"30938","provider":"google"}}},
    {"value":"139","name":"Halle/Leipzig","storePageUrl":"https://www.ikea.com/de/de/stores/halle-leipzig/","storeAddress":{"address":"Saalepark, Nordpark 17","cityName":"Leuna","displayAddress":"Saalepark, Nordpark 17, Leuna","position":{"formattedAddress":"nordpark 17, 06237 Leuna, Germany","latitude":51.3486862,"longitude":12.1831434,"extra":{"googlePlaceId":"ChIJNwl-RAP1pkcRHZ3_L-zdBrM","confidence":1,"premise":null,"subpremise":null,"neighborhood":"Kötschlitz","establishment":null},"administrativeLevels":{"level3long":"Saalekreis","level3short":"Saalekreis","level1long":"Sachsen-Anhalt","level1short":"SA"},"streetNumber":"17","streetName":"nordpark","city":"Leuna","country":"Germany","countryCode":"DE","zipcode":"06237","provider":"google"}}},
    {"value":"494","name":"Kaarst","storePageUrl":"https://www.ikea.com/de/de/stores/kaarst/","storeAddress":{"address":"Hans-Dietrich-Genscher-Strasse 1","cityName":"Kaarst","displayAddress":"Hans-Dietrich-Genscher-Strasse 1, Kaarst","position":{"formattedAddress":"41564 Kaarst, Germany","latitude":51.2241281,"longitude":6.6172049,"extra":{"googlePlaceId":"ChIJNXVmkJWzuEcRIHYqSvxgJwQ","confidence":0.5,"premise":null,"subpremise":null,"neighborhood":"Kaarst","establishment":null},"administrativeLevels":{"level3long":"Rhein-Kreis Neuss","level3short":"Rhein-Kreis Neuss","level2long":"Düsseldorf","level2short":"Düsseldorf","level1long":"North Rhine-Westphalia","level1short":"NRW"},"city":"Kaarst","country":"Germany","countryCode":"DE","zipcode":"41564","provider":"google"}}},
    {"value":"092","name":"Rostock","storePageUrl":"https://www.ikea.com/de/de/stores/rostock/","storeAddress":{"address":"Messestraße 25","cityName":"Rostock","displayAddress":"Messestraße 25, Rostock","position":{"formattedAddress":"Messestraße 25, 18069 Rostock, Germany","latitude":54.108922,"longitude":12.051639,"extra":{"googlePlaceId":"ChIJ4xJj0LhWrEcRGMXkAHTM0S4","confidence":1,"premise":null,"subpremise":null,"neighborhood":"Ortsamt 4","establishment":null},"administrativeLevels":{"level3long":"Kreisfreie Stadt Rostock","level3short":"Kreisfreie Stadt Rostock","level1long":"Mecklenburg-Vorpommern","level1short":"MV"},"streetNumber":"25","streetName":"Messestraße","city":"Rostock","country":"Germany","countryCode":"DE","zipcode":"18069","provider":"google"}}},
    {"value":"102","name":"Köln-Am Butzweilerhof","storePageUrl":"https://www.ikea.com/de/de/stores/koeln-am-butzweilerhof/","storeAddress":{"address":"Butzweilerstraße 51","cityName":"Köln","displayAddress":"Butzweilerstraße 51, Köln","position":{"formattedAddress":"Butzweilerstraße 51, 50829 Köln, Germany","latitude":50.9849209,"longitude":6.8966186,"extra":{"googlePlaceId":"ChIJbT6HZQMwv0cRUdAuwuhbrcE","confidence":1,"premise":null,"subpremise":null,"neighborhood":"Ehrenfeld","establishment":null},"administrativeLevels":{"level3long":"Kreisfreie Stadt Köln","level3short":"Kreisfreie Stadt Köln","level2long":"Köln","level2short":"K","level1long":"Nordrhein-Westfalen","level1short":"NRW"},"streetNumber":"51","streetName":"Butzweilerstraße","city":"Köln","country":"Germany","countryCode":"DE","zipcode":"50829","provider":"google"}}},
    {"value":"551","name":"Karlsruhe","storePageUrl":"https://www.ikea.com/de/de/stores/karlsruhe/","storeAddress":{"address":"Durlacher Allee 97","cityName":"Karlsruhe","displayAddress":"Durlacher Allee 97, Karlsruhe","position":{"formattedAddress":"Durlacher Allee 97, 76131 Karlsruhe, Germany","latitude":49.0049913,"longitude":8.4416517,"extra":{"googlePlaceId":"ChIJOTxPDZIJl0cREwCZOIC_8og","confidence":1,"premise":null,"subpremise":null,"neighborhood":"Oststadt","establishment":null},"administrativeLevels":{"level3long":"Kreisfreie Stadt Karlsruhe","level3short":"Kreisfreie Stadt Karlsruhe","level2long":"Karlsruhe","level2short":"KA","level1long":"Baden-Württemberg","level1short":"BW"},"streetNumber":"97","streetName":"Durlacher Allee","city":"Karlsruhe","country":"Germany","countryCode":"DE","zipcode":"76131","provider":"google"}}},
    {"value":"343","name":"München-Brunnthal","storePageUrl":"https://www.ikea.com/de/de/stores/muenchen-brunnthal/","storeAddress":{"address":"Brunnthaler Straße 1","cityName":"Taufkirchen","displayAddress":"Brunnthaler Straße 1, Taufkirchen","position":{"formattedAddress":"Brunnthaler Str. 1, 82024 Taufkirchen, Germany","latitude":48.03971869999999,"longitude":11.6573626,"extra":{"googlePlaceId":"ChIJndKaki7nnUcRVfNY9QsFJgI","confidence":1,"premise":null,"subpremise":null,"neighborhood":"Taufkirchen","establishment":null},"administrativeLevels":{"level3long":"München","level3short":"München","level2long":"Oberbayern","level2short":"Oberbayern","level1long":"Bayern","level1short":"BY"},"streetNumber":"1","streetName":"Brunnthaler Straße","city":"Taufkirchen","country":"Germany","countryCode":"DE","zipcode":"82024","provider":"google"}}},
    {"value":"617","name":"Potsdam","storePageUrl":"https://www.ikea.com/de/de/stores/potsdam/","storeAddress":{"address":"Brandenburger Strasse 5","cityName":"Potsdam","displayAddress":"Brandenburger Strasse 5, Potsdam","position":{"formattedAddress":"Brandenburger Str. 5, 14467 Potsdam, Germany","latitude":52.39958499999999,"longitude":13.0492545,"extra":{"googlePlaceId":"ChIJ0a7w59H1qEcRJ6fUHAlLq1c","confidence":1,"premise":null,"subpremise":null,"neighborhood":"Innenstadt","establishment":null},"administrativeLevels":{"level3long":"Potsdam","level3short":"Potsdam","level1long":"Brandenburg","level1short":"BB"},"streetNumber":"5","streetName":"Brandenburger Straße","city":"Potsdam","country":"Germany","countryCode":"DE","zipcode":"14467","provider":"google"}}},
    {"value":"224","name":"Sindelfingen","storePageUrl":"https://www.ikea.com/de/de/stores/sindelfingen/","storeAddress":{"address":"Hanns-Martin-Schleyer-Straße 2","cityName":"Sindelfingen","displayAddress":"Hanns-Martin-Schleyer-Straße 2, Sindelfingen","position":{"formattedAddress":"Hanns-Martin-Schleyer-Straße 2, 71063 Sindelfingen, Germany","latitude":48.702528,"longitude":9.007041,"extra":{"googlePlaceId":"ChIJG4RxFzPemUcRlWxPLEHr_TU","confidence":1,"premise":null,"subpremise":null,"neighborhood":"Sindelfingen","establishment":null},"administrativeLevels":{"level3long":"Böblingen","level3short":"BB","level2long":"Stuttgart","level2short":"Süd","level1long":"Baden-Württemberg","level1short":"BW"},"streetNumber":"2","streetName":"Hanns-Martin-Schleyer-Straße","city":"Sindelfingen","country":"Germany","countryCode":"DE","zipcode":"71063","provider":"google"}}},
    {"value":"147","name":"Köln-Godorf","storePageUrl":"https://www.ikea.com/de/de/stores/koeln-godorf/","storeAddress":{"address":"Godorfer Hauptstraße 171","cityName":"Köln","displayAddress":"Godorfer Hauptstraße 171, Köln","position":{"formattedAddress":"Godorfer Hauptstraße 171, 50997 Köln, Germany","latitude":50.8615936,"longitude":6.9710502,"extra":{"googlePlaceId":"ChIJySoJVNkjv0cRUWgDtk8JMCA","confidence":1,"premise":null,"subpremise":null,"neighborhood":"Rodenkirchen","establishment":null},"administrativeLevels":{"level3long":"Kreisfreie Stadt Köln","level3short":"Kreisfreie Stadt Köln","level2long":"Köln","level2short":"K","level1long":"Nordrhein-Westfalen","level1short":"NRW"},"streetNumber":"171","streetName":"Godorfer Hauptstraße","city":"Köln","country":"Germany","countryCode":"DE","zipcode":"50997","provider":"google"}}},
    {"value":"289","name":"Lübeck","storePageUrl":"https://www.ikea.com/de/de/stores/luebeck/","storeAddress":{"address":"Dänischburger Landstrasse 79-81","cityName":"Lübeck","displayAddress":"Dänischburger Landstrasse 79-81, Lübeck","position":{"formattedAddress":"Dänischburger Landstraße 79-81, 23569 Lübeck, Germany","latitude":53.91229389999999,"longitude":10.7337603,"extra":{"googlePlaceId":"ChIJ85HHdwgLskcRrahK869OZvI","confidence":1,"premise":null,"subpremise":null,"neighborhood":"Kücknitz","establishment":null},"administrativeLevels":{"level3long":"Kreisfreie Stadt Lübeck","level3short":"Kreisfreie Stadt Lübeck","level1long":"Schleswig-Holstein","level1short":"SH"},"streetNumber":"79-81","streetName":"Dänischburger Landstraße","city":"Lübeck","country":"Germany","countryCode":"DE","zipcode":"23569","provider":"google"}}},
    {"value":"069","name":"Oldenburg","storePageUrl":"https://www.ikea.com/de/de/stores/oldenburg/","storeAddress":{"address":"Holler Landstrasse 89","cityName":"Oldenburg","displayAddress":"Holler Landstrasse 89, Oldenburg","position":{"formattedAddress":"Holler Landstraße 89, 26135 Oldenburg, Germany","latitude":53.14020480000001,"longitude":8.255058499999999,"extra":{"googlePlaceId":"ChIJzRbCCS_ftkcRVEl_D96eo3Y","confidence":1,"premise":null,"subpremise":null,"neighborhood":"Oldenburg","establishment":null},"administrativeLevels":{"level3long":"Kreisfreie Stadt Oldenburg","level3short":"Kreisfreie Stadt Oldenburg","level1long":"Niedersachsen","level1short":"NDS"},"streetNumber":"89","streetName":"Holler Landstraße","city":"Oldenburg","country":"Germany","countryCode":"DE","zipcode":"26135","provider":"google"}}},
    {"value":"493","name":"Wetzlar","storePageUrl":"https://www.ikea.com/de/de/stores/wetzlar/","storeAddress":{"address":"Hermannsteiner Strasse 13","cityName":"Wetzlar","displayAddress":"Hermannsteiner Strasse 13, Wetzlar","position":{"formattedAddress":"Hermannsteiner Str. 13, 35576 Wetzlar, Germany","latitude":50.5680145,"longitude":8.4975231,"extra":{"googlePlaceId":"ChIJy7jQyNFavEcRbCmnAdMH6BU","confidence":1,"premise":null,"subpremise":null,"neighborhood":"Wetzlar","establishment":null},"administrativeLevels":{"level3long":"Lahn-Dill-Kreis","level3short":"Lahn-Dill-Kreis","level2long":"Gießen","level2short":"GI","level1long":"Hessen","level1short":"HE"},"streetNumber":"13","streetName":"Hermannsteiner Straße","city":"Wetzlar","country":"Germany","countryCode":"DE","zipcode":"35576","provider":"google"}}},
    {"value":"227","name":"Saarlouis","storePageUrl":"https://www.ikea.com/de/de/stores/saarlouis/","storeAddress":{"address":"Im Hader 1-3","cityName":"Saarlouis","displayAddress":"Im Hader 1-3, Saarlouis","position":{"formattedAddress":"Im Hader 1-3, 66740 Saarlouis, Germany","latitude":49.2941148,"longitude":6.7599158,"extra":{"googlePlaceId":"ChIJxZXCyvyolUcRGZmmab2OKok","confidence":1,"premise":null,"subpremise":null,"neighborhood":"Lisdorf","establishment":null},"administrativeLevels":{"level3long":"Landkreis Saarlouis","level3short":"Landkreis Saarlouis","level1long":"Saarland","level1short":"SL"},"streetNumber":"1-3","streetName":"Im Hader","city":"Saarlouis","country":"Germany","countryCode":"DE","zipcode":"66740","provider":"google"}}},
    {"value":"333","name":"Kiel","storePageUrl":"https://www.ikea.com/de/de/stores/kiel/","storeAddress":{"address":"Westring 1","cityName":"Kiel","displayAddress":"Westring 1, Kiel","position":{"formattedAddress":"Westring 1, 24114 Kiel, Germany","latitude":54.3137391,"longitude":10.1071366,"extra":{"googlePlaceId":"ChIJHZi2OYFWskcRrtBzsUv-YVk","confidence":1,"premise":null,"subpremise":null,"neighborhood":"Schreventeich - Hasseldieksdamm de Schreventeich","establishment":null},"administrativeLevels":{"level3long":"Kiel","level3short":"Kiel","level1long":"Schleswig-Holstein","level1short":"SH"},"streetNumber":"1","streetName":"Westring","city":"Kiel","country":"Germany","countryCode":"DE","zipcode":"24114","provider":"google"}}},
    {"value":"397","name":"Mannheim","storePageUrl":"https://www.ikea.com/de/de/stores/mannheim/","storeAddress":{"address":"Frankenthaler Straße 123","cityName":"Mannheim","displayAddress":"Frankenthaler Straße 123, Mannheim","position":{"formattedAddress":"Frankenthaler Str. 123, 68307 Mannheim, Germany","latitude":49.5559941,"longitude":8.4437447,"extra":{"googlePlaceId":"ChIJW-W6wYfSl0cRl6C1kSjJi6w","confidence":1,"premise":null,"subpremise":null,"neighborhood":"Sandhofen","establishment":null},"administrativeLevels":{"level3long":"Kreisfreie Stadt Mannheim","level3short":"Kreisfreie Stadt Mannheim","level2long":"Karlsruhe","level2short":"KA","level1long":"Baden-Württemberg","level1short":"BW"},"streetNumber":"123","streetName":"Frankenthaler Straße","city":"Mannheim","country":"Germany","countryCode":"DE","zipcode":"68307","provider":"google"}}},
    {"value":"492","name":"Wuppertal","storePageUrl":"https://www.ikea.com/de/de/stores/wuppertal/","storeAddress":{"address":"Schmiedestrasse 81","cityName":"Wuppertal","displayAddress":"Schmiedestrasse 81, Wuppertal","position":{"formattedAddress":"Schmiedestraße 81, 42279 Wuppertal, Germany","latitude":51.30983,"longitude":7.255747,"extra":{"googlePlaceId":"ChIJv8MPvTUmuUcRFtF2Ar_1-1Y","confidence":1,"premise":null,"subpremise":null,"neighborhood":"Oberbarmen","establishment":null},"administrativeLevels":{"level3long":"Kreisfreie Stadt Wuppertal","level3short":"Kreisfreie Stadt Wuppertal","level2long":"Düsseldorf","level2short":"Düsseldorf","level1long":"Nordrhein-Westfalen","level1short":"NRW"},"streetNumber":"81","streetName":"Schmiedestraße","city":"Wuppertal","country":"Germany","countryCode":"DE","zipcode":"42279","provider":"google"}}},
    {"value":"369","name":"Siegen","storePageUrl":"https://www.ikea.com/de/de/stores/siegen/","storeAddress":{"address":"Wallhausenstraße 60","cityName":"Siegen","displayAddress":"Wallhausenstraße 60, Siegen","position":{"formattedAddress":"Wallhausenstraße 60, 57072 Siegen, Germany","latitude":50.8626233,"longitude":8.002180599999999,"extra":{"googlePlaceId":"ChIJd7XaZFgcvEcRLAGfDuSBTEU","confidence":1,"premise":null,"subpremise":null,"neighborhood":"Achenbach","establishment":null},"administrativeLevels":{"level3long":"Siegen-Wittgenstein","level3short":"Siegen-Wittgenstein","level2long":"Arnsberg","level2short":"Arnsberg","level1long":"Nordrhein-Westfalen","level1short":"NRW"},"streetNumber":"60","streetName":"Wallhausenstraße","city":"Siegen","country":"Germany","countryCode":"DE","zipcode":"57072","provider":"google"}}},
    {"value":"229","name":"Regensburg","storePageUrl":"https://www.ikea.com/de/de/stores/regensburg/","storeAddress":{"address":"Sulzfeldstraße 7","cityName":"Regensburg","displayAddress":"Sulzfeldstraße 7, Regensburg","position":{"formattedAddress":"Sulzfeldstraße 7, 93055 Regensburg, Germany","latitude":49.001756,"longitude":12.1776994,"extra":{"googlePlaceId":"ChIJxxW76KvDn0cRsOu43g1clck","confidence":1,"premise":null,"subpremise":null,"neighborhood":"Ostenviertel","establishment":null},"administrativeLevels":{"level3long":"Kreisfreie Stadt Regensburg","level3short":"Kreisfreie Stadt Regensburg","level2long":"Oberpfalz","level2short":"Oberpfalz","level1long":"Bayern","level1short":"BY"},"streetNumber":"7","streetName":"Sulzfeldstraße","city":"Regensburg","country":"Germany","countryCode":"DE","zipcode":"93055","provider":"google"}}},
    {"value":"332","name":"Koblenz","storePageUrl":"https://www.ikea.com/de/de/stores/koblenz/","storeAddress":{"address":"An der Römervilla 1","cityName":"Koblenz","displayAddress":"An der Römervilla 1, Koblenz","position":{"formattedAddress":"An d. Römervilla 1, 56070 Koblenz, Germany","latitude":50.3823076,"longitude":7.5678478,"extra":{"googlePlaceId":"ChIJp9p5piRjvkcRfWi0UAKH314","confidence":1,"premise":null,"subpremise":null,"neighborhood":"Gewerbepark Koblenz B9 Nord","establishment":null},"administrativeLevels":{"level3long":"Kreisfreie Stadt Koblenz","level3short":"Kreisfreie Stadt Koblenz","level1long":"Rheinland-Pfalz","level1short":"RP"},"streetNumber":"1","streetName":"An der Römervilla","city":"Koblenz","country":"Germany","countryCode":"DE","zipcode":"56070","provider":"google"}}},
    {"value":"225","name":"Ludwigsburg","storePageUrl":"https://www.ikea.com/de/de/stores/ludwigsburg/","storeAddress":{"address":"Heinkelstraße 10","cityName":"Ludwigsburg","displayAddress":"Heinkelstraße 10, Ludwigsburg","position":{"formattedAddress":"Heinkelstraße 10, 71634 Ludwigsburg, Germany","latitude":48.9180169,"longitude":9.1539393,"extra":{"googlePlaceId":"ChIJMXL892DRmUcR3W6fh3QrlCQ","confidence":1,"premise":null,"subpremise":null,"neighborhood":"Ludwigsburg","establishment":null},"administrativeLevels":{"level3long":"Ludwigsburg","level3short":"LB","level2long":"Stuttgart","level2short":"Süd","level1long":"Baden-Württemberg","level1short":"BW"},"streetNumber":"10","streetName":"Heinkelstraße","city":"Ludwigsburg","country":"Germany","countryCode":"DE","zipcode":"71634","provider":"google"}}},
    {"value":"063","name":"München-Eching","storePageUrl":"https://www.ikea.com/de/de/stores/muenchen-eching/","storeAddress":{"address":"Heisenbergstraße 14","cityName":"Eching","displayAddress":"Heisenbergstraße 14, Eching","position":{"formattedAddress":"Heisenbergstraße 14, 85386 Eching, Germany","latitude":48.3042117,"longitude":11.6336475,"extra":{"googlePlaceId":"ChIJFyPDJe9tnkcRBBtooe7Civs","confidence":1,"premise":null,"subpremise":null,"neighborhood":"Eching-Ost","establishment":null},"administrativeLevels":{"level3long":"Freising","level3short":"FS","level2long":"Oberbayern","level2short":"Oberbayern","level1long":"Bayern","level1short":"BY"},"streetNumber":"14","streetName":"Heisenbergstraße","city":"Eching","country":"Germany","countryCode":"DE","zipcode":"85386","provider":"google"}}},
    {"value":"075","name":"Walldorf","storePageUrl":"https://www.ikea.com/de/de/stores/walldorf/","storeAddress":{"address":"Josef-Reiert-Straße 9","cityName":"Walldorf","displayAddress":"Josef-Reiert-Straße 9, Walldorf","position":{"formattedAddress":"Josef-Reiert-Straße 9, 69190 Walldorf, Germany","latitude":49.3064312,"longitude":8.6290519,"extra":{"googlePlaceId":"ChIJayuCNbW-l0cRFTYRX49bXwQ","confidence":1,"premise":null,"subpremise":null,"neighborhood":"Walldorf","establishment":null},"administrativeLevels":{"level3long":"Rhein-Neckar-Kreis","level3short":"Rhein-Neckar-Kreis","level2long":"Karlsruhe","level2short":"KA","level1long":"Baden-Württemberg","level1short":"BW"},"streetNumber":"9","streetName":"Josef-Reiert-Straße","city":"Walldorf","country":"Germany","countryCode":"DE","zipcode":"69190","provider":"google"}}},
    {"value":"328","name":"Ulm","storePageUrl":"https://www.ikea.com/de/de/stores/ulm/","storeAddress":{"address":"Blaubeurer Straße 10","cityName":"Ulm","displayAddress":"Blaubeurer Straße 10, Ulm","position":{"formattedAddress":"Blaubeurer Str. 10, 89077 Ulm, Germany","latitude":48.4041573,"longitude":9.975353799999999,"extra":{"googlePlaceId":"ChIJHZkJfSxkmUcRxudmBspW1Cs","confidence":1,"premise":null,"subpremise":null,"neighborhood":"Ulm","establishment":null},"administrativeLevels":{"level3long":"Kreisfreie Stadt Ulm","level3short":"Kreisfreie Stadt Ulm","level2long":"Tübingen","level2short":"TÜ","level1long":"Baden-Württemberg","level1short":"BW"},"streetNumber":"10","streetName":"Blaubeurer Straße","city":"Ulm","country":"Germany","countryCode":"DE","zipcode":"89077","provider":"google"}}},
    {"value":"322","name":"Wallau","storePageUrl":"https://www.ikea.com/de/de/stores/wallau/","storeAddress":{"address":"Am Wandersmann 2-4","cityName":"Hofheim-Wallau","displayAddress":"Am Wandersmann 2-4, Hofheim-Wallau","position":{"formattedAddress":"Am Wandersmann 2-4, 65719 Hofheim am Taunus, Germany","latitude":50.0581258,"longitude":8.371616999999999,"extra":{"googlePlaceId":"ChIJsY32XZCivUcRLerS-kF1p5I","confidence":1,"premise":null,"subpremise":null,"neighborhood":"Wallau","establishment":null},"administrativeLevels":{"level3long":"Main-Taunus-Kreis","level3short":"Main-Taunus-Kreis","level2long":"Darmstadt","level2short":"DA","level1long":"Hessen","level1short":"HE"},"streetNumber":"2-4","streetName":"Am Wandersmann","city":"Hofheim am Taunus","country":"Germany","countryCode":"DE","zipcode":"65719","provider":"google"}}},
    {"value":"184","name":"Osnabrück","storePageUrl":"https://www.ikea.com/de/de/stores/osnabrueck/","storeAddress":{"address":"Rheiner Landstraße 215","cityName":"Osnabrück","displayAddress":"Rheiner Landstraße 215, Osnabrück","position":{"formattedAddress":"Rheiner Landstraße 215, 49078 Osnabrück, Germany","latitude":52.26325670000001,"longitude":7.9714331,"extra":{"googlePlaceId":"ChIJyUH6VifmuUcRQ0XQDgiKGpE","confidence":1,"premise":null,"subpremise":null,"neighborhood":"Hellern","establishment":null},"administrativeLevels":{"level3long":"Kreisfreie Stadt Osnabrück","level3short":"Kreisfreie Stadt Osnabrück","level1long":"Niedersachsen","level1short":"NDS"},"streetNumber":"215","streetName":"Rheiner Landstraße","city":"Osnabrück","country":"Germany","countryCode":"DE","zipcode":"49078","provider":"google"}}},
    {"value":"520","name":"Magdeburg","storePageUrl":"https://www.ikea.com/de/de/stores/magdeburg/","storeAddress":{"address":"Ebendorfer Chaussee 70","cityName":"Magdeburg","displayAddress":"Ebendorfer Chaussee 70, Magdeburg","position":{"formattedAddress":"Ebendorfer Ch 70, 39128 Magdeburg, Germany","latitude":52.1674418,"longitude":11.612417,"extra":{"googlePlaceId":"ChIJVe7-tQZfr0cRjcs6xIboJA8","confidence":1,"premise":null,"subpremise":null,"neighborhood":"Sülzegrund","establishment":null},"administrativeLevels":{"level3long":"Kreisfreie Stadt Magdeburg","level3short":"Kreisfreie Stadt Magdeburg","level1long":"Sachsen-Anhalt","level1short":"SA"},"streetNumber":"70","streetName":"Ebendorfer Chaussee","city":"Magdeburg","country":"Germany","countryCode":"DE","zipcode":"39128","provider":"google"}}},
    {"value":"146","name":"Hamburg-Schnelsen","storePageUrl":"https://www.ikea.com/de/de/stores/hamburg-schnelsen/","storeAddress":{"address":"Wunderbrunnen 1","cityName":"Hamburg, Schnelsen","displayAddress":"Wunderbrunnen 1, Hamburg, Schnelsen","position":{"formattedAddress":"Parkplatz, Wunderbrunnen 1, 22457 Hamburg, Germany","latitude":53.6490636,"longitude":9.929629,"extra":{"googlePlaceId":"ChIJuQLX0aKHsUcRudOj7QpOixA","confidence":1,"premise":"Parkplatz","subpremise":null,"neighborhood":"Bezirk Eimsbüttel","establishment":null},"administrativeLevels":{"level3long":"Hamburg","level3short":"Hamburg","level1long":"Hamburg","level1short":"HH"},"streetNumber":"1","streetName":"Wunderbrunnen","city":"Hamburg","country":"Germany","countryCode":"DE","zipcode":"22457","provider":"google"}}},
    {"value":"326","name":"Nürnberg-Fürth","storePageUrl":"https://www.ikea.com/de/de/stores/nuernberg-fuerth/","storeAddress":{"address":"Hans-Vogel-Straße 110","cityName":"Fürth","displayAddress":"Hans-Vogel-Straße 110, Fürth","position":{"formattedAddress":"Hans-Vogel-Straße 110, 90765 Fürth, Germany","latitude":49.4853663,"longitude":11.009872,"extra":{"googlePlaceId":"ChIJM43Jk_pVn0cRdtjskB2nnnI","confidence":1,"premise":null,"subpremise":null,"neighborhood":"Poppenreuth","establishment":null},"administrativeLevels":{"level3long":"Kreisfreie Stadt Fürth","level3short":"Kreisfreie Stadt Fürth","level2long":"Mittelfranken","level2short":"Mittelfranken","level1long":"Bayern","level1short":"BY"},"streetNumber":"110","streetName":"Hans-Vogel-Straße","city":"Fürth","country":"Germany","countryCode":"DE","zipcode":"90765","provider":"google"}}},
    {"value":"124","name":"Würzburg","storePageUrl":"https://www.ikea.com/de/de/stores/wuerzburg/","storeAddress":{"address":"Mainfrankenhöhe 2","cityName":"Würzburg","displayAddress":"Mainfrankenhöhe 2, Würzburg","position":{"formattedAddress":"Würzburg, Germany","latitude":49.79130439999999,"longitude":9.9533548,"extra":{"googlePlaceId":"ChIJ2U3aEiCQokcRoAli8Ci3HQQ","confidence":0.5,"premise":null,"subpremise":null,"neighborhood":"Würzburg","establishment":null},"administrativeLevels":{"level3long":"Würzburg","level3short":"WÜ","level2long":"Lower Franconia","level2short":"Lower Franconia","level1long":"Bavaria","level1short":"BY"},"city":"Würzburg","country":"Germany","countryCode":"DE","provider":"google"}}}    
]