[{"value":"309","name":"Ostrava","storePageUrl":"https://www.ikea.com/cz/cs/stores/ostrava/","storeAddress":{"address":"Rudná 110","cityName":"Ostrava-Zábřeh","displayAddress":"Rudná 110, Ostrava-Zábřeh","position":{"formattedAddress":"Rudná 110, 700 30 Ostrava-jih, Czechia","latitude":49.7992157,"longitude":18.2272543,"extra":{"googlePlaceId":"ChIJCzfiO4zkE0cRwYhV_BgZL-U","confidence":1,"premise":null,"subpremise":null,"neighborhood":"Ostrava-jih","establishment":null},"administrativeLevels":{"level2long":"Ostrava-město","level2short":"Ostrava-město","level1long":"Moravskoslezský kraj","level1short":"Moravskoslezský kraj"},"streetNumber":"110","streetName":"Rudná","country":"Czechia","countryCode":"CZ","zipcode":"700 30","provider":"google"}}},{"value":"408","name":"Černý Most","storePageUrl":"https://www.ikea.com/cz/cs/stores/praha-cerny-most/","storeAddress":{"address":"Chlumecká 664/10","cityName":"Praha 9-Cerný most","displayAddress":"Chlumecká 664/10, Praha 9-Cerný most","position":{"formattedAddress":"Chlumecká 664/10, 198 00 Praha 14-Černý Most, Czechia","latitude":50.1044626,"longitude":14.5869926,"extra":{"googlePlaceId":"ChIJW-Z8eKfyC0cRnlxtMPEZz7I","confidence":1,"premise":"664","subpremise":null,"neighborhood":"Černý Most","establishment":null},"administrativeLevels":{"level2long":"Hlavní město Praha","level2short":"Hlavní město Praha","level1long":"Hlavní město Praha","level1short":"Hlavní město Praha"},"streetNumber":"10","streetName":"Chlumecká","country":"Czechia","countryCode":"CZ","zipcode":"198 00","provider":"google"}}},{"value":"278","name":"Brno","storePageUrl":"https://www.ikea.com/cz/cs/stores/brno/","storeAddress":{"address":"Skandinávská 4","cityName":"Brno-Dolní Herspice","displayAddress":"Skandinávská 4, Brno-Dolní Herspice","position":{"formattedAddress":"Skandinávská 4, 619 00 Brno-Brno-jih, Czechia","latitude":49.1559299,"longitude":16.6275843,"extra":{"googlePlaceId":"ChIJiX5hxkOVEkcRS_EjRVfNgks","confidence":1,"premise":null,"subpremise":null,"neighborhood":"Brno-jih","establishment":null},"administrativeLevels":{"level2long":"Brno-město","level2short":"Brno-město","level1long":"Jihomoravský kraj","level1short":"Jihomoravský kraj"},"streetNumber":"4","streetName":"Skandinávská","country":"Czechia","countryCode":"CZ","zipcode":"619 00","provider":"google"}}},{"value":"178","name":"Zličín","storePageUrl":"https://www.ikea.com/cz/cs/stores/praha-zlicin/","storeAddress":{"address":"Skandinávská 131/1","cityName":"Praha 5","displayAddress":"Skandinávská 131/1, Praha 5","position":{"formattedAddress":"Skandinávská 131/1, 155 00 Praha 13-Třebonice, Czechia","latitude":50.05107109999999,"longitude":14.2983722,"extra":{"googlePlaceId":"ChIJf_okWgy-C0cRrRR0vLQjngE","confidence":1,"premise":"131","subpremise":null,"neighborhood":"Třebonice","establishment":null},"administrativeLevels":{"level2long":"Hlavní město Praha","level2short":"Hlavní město Praha","level1long":"Hlavní město Praha","level1short":"Hlavní město Praha"},"streetNumber":"1","streetName":"Skandinávská","country":"Czechia","countryCode":"CZ","zipcode":"155 00","provider":"google"}}}]
