[{"value":"182","name":"Budaörsi IKEA","storePageUrl":"https://www.ikea.com/hu/hu/stores/budaors/","storeAddress":{"address":"Sport utca 2–4","cityName":"Budaörs","displayAddress":"Sport utca 2–4, Budaörs","position":{"formattedAddress":"Budaörs, Sport u. 2-4, 2040 Hungary","latitude":47.4537773,"longitude":18.9397635,"extra":{"googlePlaceId":"ChIJceEL_CfeQUcRbthlV1N5Kro","confidence":1,"premise":null,"subpremise":null,"neighborhood":"Budaörs","establishment":null},"administrativeLevels":{},"streetNumber":"2-4","streetName":"Sport utca","city":"Budaörs","country":"Hungary","countryCode":"HU","zipcode":"2040","provider":"google"}}},{"value":"180","name":"Örs vezér téri IKEA","storePageUrl":"https://www.ikea.com/hu/hu/stores/budapest/","storeAddress":{"address":"Örs vezér tere 22","cityName":"Budapest","displayAddress":"Örs vezér tere 22, Budapest","position":{"formattedAddress":"Budapest, Örs vezér tere 22, 1148 Hungary","latitude":47.5055919,"longitude":19.1383641,"extra":{"googlePlaceId":"ChIJ6djz71XbQUcRDE9w-IircTY","confidence":1,"premise":null,"subpremise":null,"neighborhood":"XIV. kerület","establishment":null},"administrativeLevels":{},"streetNumber":"22","streetName":"Örs vezér tere","city":"Budapest","country":"Hungary","countryCode":"HU","zipcode":"1148","provider":"google"}}},{"value":"507","name":"Soroksári IKEA","storePageUrl":"https://www.ikea.com/hu/hu/stores/soroksar/","storeAddress":{"address":"Bevásárló utca 4","cityName":"Budapest","displayAddress":"Bevásárló utca 4, Budapest","position":{"formattedAddress":"Budapest, Bevásárló u. 4, 1239 Hungary","latitude":47.4129759,"longitude":19.1614883,"extra":{"googlePlaceId":"ChIJ-dzo89vpQUcRNbfxYiZm0Eg","confidence":1,"premise":null,"subpremise":null,"neighborhood":"XXIII. kerület","establishment":null},"administrativeLevels":{},"streetNumber":"4","streetName":"Bevásárló utca","city":"Budapest","country":"Hungary","countryCode":"HU","zipcode":"1239","provider":"google"}}}]
