[
{"value":"483","name":"Arlon","storePageUrl":"https://www.ikea.com/be/fr/stores/arlon/","storeAddress":{"address":"Rue de Grasse 100","cityName":"Arlon","displayAddress":"Rue de Grasse 100, Arlon","position":{"formattedAddress":"Rue de Grass 100, 6700 Arlon, Belgium","latitude":49.6376179,"longitude":5.8908738,"extra":{"googlePlaceId":"ChIJVQbuv-Wz6kcRuXj06Q4HBPw","confidence":1,"premise":null,"subpremise":null,"neighborhood":"Arlon","establishment":null},"administrativeLevels":{"level2long":"Luxembourg","level2short":"LX","level1long":"Région Wallonne","level1short":"Région Wallonne"},"streetNumber":"100","streetName":"Rue de Grass","city":"Arlon","country":"Belgium","countryCode":"BE","zipcode":"6700","provider":"google"}}},
{"value":"169","name":"Gent","storePageUrl":"https://www.ikea.com/be/fr/stores/gent/","storeAddress":{"address":"Maaltekouter 2","cityName":"Sint-Denijs-Westrem","displayAddress":"Maaltekouter 2, Sint-Denijs-Westrem","position":{"formattedAddress":"Maaltekouter 2, 9051 Gent, Belgium","latitude":51.0232435,"longitude":3.688019299999999,"extra":{"googlePlaceId":"ChIJ8TTAksxzw0cRc0POguQ4JTg","confidence":1,"premise":null,"subpremise":null,"neighborhood":"Gent","establishment":null},"administrativeLevels":{"level2long":"Oost-Vlaanderen","level2short":"OV","level1long":"Vlaams Gewest","level1short":"Vlaams Gewest"},"streetNumber":"2","streetName":"Maaltekouter","city":"Gent","country":"Belgium","countryCode":"BE","zipcode":"9051","provider":"google"}}},
{"value":"376","name":"Zaventem","storePageUrl":"https://www.ikea.com/be/fr/stores/zaventem/","storeAddress":{"address":"Weiveldlaan 19","cityName":"Zaventem","displayAddress":"Weiveldlaan 19, Zaventem","position":{"formattedAddress":"Weiveldlaan 19, 1930 Zaventem, Belgium","latitude":50.8718167,"longitude":4.491782199999999,"extra":{"googlePlaceId":"ChIJkafBpDncw0cRe5LWXGYCuwc","confidence":1,"premise":null,"subpremise":null,"neighborhood":"Zaventem","establishment":null},"administrativeLevels":{"level2long":"Vlaams-Brabant","level2short":"VB","level1long":"Vlaams Gewest","level1short":"Vlaams Gewest"},"streetNumber":"19","streetName":"Weiveldlaan","city":"Zaventem","country":"Belgium","countryCode":"BE","zipcode":"1930","provider":"google"}}},
{"value":"482","name":"Anderlecht","storePageUrl":"https://www.ikea.com/be/fr/stores/anderlecht/","storeAddress":{"address":"Chaussee De Mons 1432","cityName":"Anderlecht","displayAddress":"Chaussee De Mons 1432, Anderlecht","position":{"formattedAddress":"Chau. de Mons 1432, 1070 Anderlecht, Belgium","latitude":50.8108048,"longitude":4.290805700000001,"extra":{"googlePlaceId":"ChIJo4-Q1IfGw0cR1AqVEWaGTSc","confidence":1,"premise":null,"subpremise":null,"neighborhood":"Anderlecht","establishment":null},"administrativeLevels":{"level1long":"Bruxelles","level1short":"Bruxelles"},"streetNumber":"1432","streetName":"Chaussée de Mons","city":"Anderlecht","country":"Belgium","countryCode":"BE","zipcode":"1070","provider":"google"}}},
{"value":"375","name":"Liège","storePageUrl":"https://www.ikea.com/be/fr/stores/liege/","storeAddress":{"address":"Porte De Liege 7","cityName":"Hognoul","displayAddress":"Porte De Liege 7, Hognoul","position":{"formattedAddress":"Prte de Liège 7, 4342 Awans, Belgium","latitude":50.6789862,"longitude":5.4629218,"extra":{"googlePlaceId":"ChIJVUCv1_T8wEcRQ-Qkv2nS2A0","confidence":1,"premise":null,"subpremise":null,"neighborhood":"Awans","establishment":null},"administrativeLevels":{"level2long":"Liège","level2short":"LG","level1long":"Région Wallonne","level1short":"Région Wallonne"},"streetNumber":"7","streetName":"Porte de Liège","city":"Awans","country":"Belgium","countryCode":"BE","zipcode":"4342","provider":"google"}}},
{"value":"179","name":"Wilrijk","storePageUrl":"https://www.ikea.com/be/fr/stores/wilrijk/","storeAddress":{"address":"Boomsesteenweg 755","cityName":"Wilrijk","displayAddress":"Boomsesteenweg 755, Wilrijk","position":{"formattedAddress":"Boomsesteenweg 755, 2610 Antwerpen, Belgium","latitude":51.15766610000001,"longitude":4.387589,"extra":{"googlePlaceId":"ChIJASH_0hXxw0cRzJXceMug_Ko","confidence":1,"premise":null,"subpremise":null,"neighborhood":"Wilrijk","establishment":null},"administrativeLevels":{"level2long":"Antwerpen","level2short":"AN","level1long":"Vlaams Gewest","level1short":"Vlaams Gewest"},"streetNumber":"755","streetName":"Boomsesteenweg","city":"Antwerpen","country":"Belgium","countryCode":"BE","zipcode":"2610","provider":"google"}}},
{"value":"452","name":"Hasselt","storePageUrl":"https://www.ikea.com/be/fr/stores/hasselt/","storeAddress":{"address":"Biezenstraat 45","cityName":"Hasselt","displayAddress":"Biezenstraat 45, Hasselt","position":{"formattedAddress":"Biezenstraat 45, 3500 Hasselt, Belgium","latitude":50.9188494,"longitude":5.3137544,"extra":{"googlePlaceId":"ChIJD4DH7jsiwUcR_CB7ve2XqYs","confidence":1,"premise":null,"subpremise":null,"neighborhood":"Hasselt","establishment":null},"administrativeLevels":{"level2long":"Limburg","level2short":"LI","level1long":"Vlaams Gewest","level1short":"Vlaams Gewest"},"streetNumber":"45","streetName":"Biezenstraat","city":"Hasselt","country":"Belgium","countryCode":"BE","zipcode":"3500","provider":"google"}}},
{"value":"423","name":"Mons","storePageUrl":"https://www.ikea.com/be/fr/stores/mons/","storeAddress":{"address":"Place des Grands Prés 1/A","cityName":"Mons","displayAddress":"Place des Grands Prés 1/A, Mons","position":{"formattedAddress":"Pl. des Grands Prés 1, 7000 Mons, Belgium","latitude":50.455851,"longitude":3.9326356,"extra":{"googlePlaceId":"ChIJB-oUPA1QwkcR7FjENee45HI","confidence":1,"premise":null,"subpremise":null,"neighborhood":"Mons","establishment":null},"administrativeLevels":{"level2long":"Hainaut","level2short":"HT","level1long":"Région Wallonne","level1short":"Région Wallonne"},"streetNumber":"1","streetName":"Place des Grands Prés","city":"Mons","country":"Belgium","countryCode":"BE","zipcode":"7000","provider":"google"}}}
]