[{"value":"583","name":"Szczecin","storePageUrl":"https://www.ikea.com/pl/pl/stores/szczecin/","storeAddress":{"address":"ul. Białowieska 2","cityName":"Szczecin","displayAddress":"ul. Białowieska 2, Szczecin","position":{"formattedAddress":"Białowieska 2, 71-010 Szczecin, Poland","latitude":53.407568,"longitude":14.513891,"extra":{"googlePlaceId":"ChIJAY2sHtAIqkcRbECUN5vPN-I","confidence":1,"premise":null,"subpremise":null,"neighborhood":"Gumieńce","establishment":null},"administrativeLevels":{"level2long":"Szczecin","level2short":"Szczecin","level1long":"Zachodniopomorskie","level1short":"Zachodniopomorskie"},"streetNumber":"2","streetName":"Białowieska","city":"Szczecin","country":"Poland","countryCode":"PL","zipcode":"71-010","provider":"google"}}},{"value":"329","name":"Łódź","storePageUrl":"https://www.ikea.com/pl/pl/stores/lodz/","storeAddress":{"address":"ul. Pabianicka 255","cityName":"Łódź","displayAddress":"ul. Pabianicka 255, Łódź","position":{"formattedAddress":"Pabianicka 255, 93-460 Łódź, Poland","latitude":51.701943,"longitude":19.4122075,"extra":{"googlePlaceId":"ChIJT7UpoTQ0GkcRt8JHowgbe-w","confidence":1,"premise":null,"subpremise":null,"neighborhood":"Górna","establishment":null},"administrativeLevels":{"level2long":"Łódź","level2short":"Łódź","level1long":"Łódzkie","level1short":"Łódzkie"},"streetNumber":"255","streetName":"Pabianicka","city":"Łódź","country":"Poland","countryCode":"PL","zipcode":"93-460","provider":"google"}}},{"value":"307","name":"Targówek","storePageUrl":"https://www.ikea.com/pl/pl/stores/targowek/","storeAddress":{"address":"ul. Malborska 51","cityName":"Warszawa","displayAddress":"ul. Malborska 51, Warszawa","position":{"formattedAddress":"Malborska 51, Warszawa, Poland","latitude":52.30480490000001,"longitude":21.0774554,"extra":{"googlePlaceId":"ChIJA2jZju_OHkcR1Oo6YGwZyks","confidence":1,"premise":null,"subpremise":null,"neighborhood":"Targówek","establishment":null},"administrativeLevels":{"level2long":"Warszawa","level2short":"Warszawa","level1long":"Mazowieckie","level1short":"Mazowieckie"},"streetNumber":"51","streetName":"Malborska","city":"Warszawa","country":"Poland","countryCode":"PL","zipcode":"03","provider":"google"}}},{"value":"205","name":"Poznań","storePageUrl":"https://www.ikea.com/pl/pl/stores/poznan/","storeAddress":{"address":"ul. Szwedzka 10","cityName":"Poznań","displayAddress":"ul. Szwedzka 10, Poznań","position":{"formattedAddress":"Szwedzka 10, 61-001 Poznań, Poland","latitude":52.3829516,"longitude":16.9876836,"extra":{"googlePlaceId":"ChIJPwSvzbVbBEcRWZbLf6dzTpg","confidence":1,"premise":null,"subpremise":null,"neighborhood":"Nowe Miasto","establishment":null},"administrativeLevels":{"level2long":"Poznań","level2short":"Poznań","level1long":"Wielkopolskie","level1short":"Wielkopolskie"},"streetNumber":"10","streetName":"Szwedzka","city":"Poznań","country":"Poland","countryCode":"PL","zipcode":"61-001","provider":"google"}}},{"value":"429","name":"Bydgoszcz","storePageUrl":"https://www.ikea.com/pl/pl/stores/bydgoszcz/","storeAddress":{"address":"ul. Skandynawska 1","cityName":"Bydgoszcz","displayAddress":"ul. Skandynawska 1, Bydgoszcz","position":{"formattedAddress":"Skandynawska 1, 85-766 Bydgoszcz, Poland","latitude":53.132231,"longitude":18.120765,"extra":{"googlePlaceId":"ChIJtacIatUVA0cRgIJkV7rWOeM","confidence":1,"premise":null,"subpremise":null,"neighborhood":"Bydgoszcz","establishment":null},"administrativeLevels":{"level2long":"Bydgoszcz","level2short":"Bydgoszcz","level1long":"Kujawsko-Pomorskie","level1short":"Kujawsko-Pomorskie"},"streetNumber":"1","streetName":"Skandynawska","city":"Bydgoszcz","country":"Poland","countryCode":"PL","zipcode":"85-766","provider":"google"}}},{"value":"188","name":"Janki","storePageUrl":"https://www.ikea.com/pl/pl/stores/janki/","storeAddress":{"address":"Janki, pl. Szwedzki 1","cityName":"Raszyn","displayAddress":"Janki, pl. Szwedzki 1, Raszyn","position":{"formattedAddress":"plac Szwedzki 1, 05-090 Janki, Poland","latitude":52.132699,"longitude":20.8973809,"extra":{"googlePlaceId":"ChIJY5QskfgzGUcRhhOLvdw2CW4","confidence":1,"premise":null,"subpremise":null,"neighborhood":"Janki","establishment":null},"administrativeLevels":{"level2long":"Powiat pruszkowski","level2short":"Powiat pruszkowski","level1long":"Mazowieckie","level1short":"Mazowieckie"},"streetNumber":"1","streetName":"plac Szwedzki","city":"Janki","country":"Poland","countryCode":"PL","zipcode":"05-090","provider":"google"}}},{"value":"203","name":"Gdańsk","storePageUrl":"https://www.ikea.com/pl/pl/stores/gdansk/","storeAddress":{"address":"ul. Złota Karczma 26","cityName":"Gdańsk","displayAddress":"ul. Złota Karczma 26, Gdańsk","position":{"formattedAddress":"Złota Karczma 26, 80-298 Gdańsk, Poland","latitude":54.371873,"longitude":18.5201034,"extra":{"googlePlaceId":"ChIJpyudPXZ1_UYRnk9LxSht4-M","confidence":1,"premise":null,"subpremise":null,"neighborhood":"Matarnia","establishment":null},"administrativeLevels":{"level2long":"Gdańsk","level2short":"Gdańsk","level1long":"Pomorskie","level1short":"Pomorskie"},"streetNumber":"26","streetName":"Złota Karczma","city":"Gdańsk","country":"Poland","countryCode":"PL","zipcode":"80-298","provider":"google"}}},{"value":"311","name":"Lublin","storePageUrl":"https://www.ikea.com/pl/pl/stores/lublin/","storeAddress":{"address":"Aleja Spółdzielczości Pracy 86","cityName":"Lublin","displayAddress":"Aleja Spółdzielczości Pracy 86, Lublin","position":{"formattedAddress":"Aleja Spółdzielczości Pracy 86, 20-147 Lublin, Poland","latitude":51.2819766,"longitude":22.5733105,"extra":{"googlePlaceId":"ChIJ55hyFaZQIkcRnmEy5CMIY7o","confidence":1,"premise":null,"subpremise":null,"neighborhood":"Lublin","establishment":null},"administrativeLevels":{"level2long":"Lublin","level2short":"Lublin","level1long":"Lubelskie","level1short":"Lubelskie"},"streetNumber":"86","streetName":"Aleja Spółdzielczości Pracy","city":"Lublin","country":"Poland","countryCode":"PL","zipcode":"20-147","provider":"google"}}},{"value":"306","name":"Katowice","storePageUrl":"https://www.ikea.com/pl/pl/stores/katowice/","storeAddress":{"address":"al. W. Roździeńskiego 95","cityName":"Katowice","displayAddress":"al. W. Roździeńskiego 95, Katowice","position":{"formattedAddress":"aleja Roździeńskiego 95, 40-203 Katowice, Poland","latitude":50.2704686,"longitude":19.0573487,"extra":{"googlePlaceId":"ChIJae_ZD9fPFkcR-RD7mOJovrk","confidence":1,"premise":null,"subpremise":null,"neighborhood":"Katowice","establishment":null},"administrativeLevels":{"level2long":"Katowice","level2short":"Katowice","level1long":"Śląskie","level1short":"Śląskie"},"streetNumber":"95","streetName":"aleja Roździeńskiego","city":"Katowice","country":"Poland","countryCode":"PL","zipcode":"40-203","provider":"google"}}},{"value":"204","name":"Kraków","storePageUrl":"https://www.ikea.com/pl/pl/stores/krakow/","storeAddress":{"address":"ul. Josepha Conrada 66","cityName":"Kraków","displayAddress":"ul. Josepha Conrada 66, Kraków","position":{"formattedAddress":"Josepha Conrada 66, 31-357 Kraków, Poland","latitude":50.0891686,"longitude":19.897377,"extra":{"googlePlaceId":"ChIJ39niRzJaFkcR8aee4z1y-wc","confidence":1,"premise":null,"subpremise":null,"neighborhood":"Prądnik Biały","establishment":null},"administrativeLevels":{"level2long":"Kraków","level2short":"Kraków","level1long":"Małopolskie","level1short":"Małopolskie"},"streetNumber":"66","streetName":"Josepha Conrada","city":"Kraków","country":"Poland","countryCode":"PL","zipcode":"31-357","provider":"google"}}},{"value":"294","name":"Wrocław","storePageUrl":"https://www.ikea.com/pl/pl/stores/wroclaw/","storeAddress":{"address":"Bielany Wrocławskie, Czekoladowa 5A","cityName":"Kobierzyce","displayAddress":"Bielany Wrocławskie, Czekoladowa 5A, Kobierzyce","position":{"formattedAddress":"Czekoladowa 5A, 55-040 Bielany Wrocławskie, Poland","latitude":51.047576,"longitude":16.954592,"extra":{"googlePlaceId":"ChIJOR1T7VfBD0cRgK6OAfTI_5Q","confidence":1,"premise":null,"subpremise":null,"neighborhood":"Bielany Wrocławskie","establishment":null},"administrativeLevels":{"level2long":"wrocławski","level2short":"wrocławski","level1long":"Dolnośląskie","level1short":"Dolnośląskie"},"streetNumber":"5A","streetName":"Czekoladowa","city":"Bielany Wrocławskie","country":"Poland","countryCode":"PL","zipcode":"55-040","provider":"google"}}}]
