[
{"value":"917","name":"St. Gallen","storePageUrl":"https://www.ikea.com/ch/de/stores/st-gallen/","storeAddress":{"address":"Zürcherstrasse 460","cityName":"St. Gallen","displayAddress":"Zürcherstrasse 460, St. Gallen","position":{"formattedAddress":"Zürcherstrasse 460, 9015 St. Gallen, Switzerland","latitude":47.4083645,"longitude":9.3069224,"extra":{"googlePlaceId":"ChIJe7Yq0EPgmkcRnBueSeRUvbo","confidence":1,"premise":null,"subpremise":null,"neighborhood":"St. Gallen","establishment":null},"administrativeLevels":{"level2long":"Sankt Gallen","level2short":"St. Gallen","level1long":"Sankt Gallen","level1short":"SG"},"streetNumber":"460","streetName":"Zürcherstrasse","city":"St. Gallen","country":"Switzerland","countryCode":"CH","zipcode":"9015","provider":"google"}}},
{"value":"275","name":"Rothenburg","storePageUrl":"https://www.ikea.com/ch/de/stores/rothenburg/","storeAddress":{"address":"Wahligenstrasse 6","cityName":"Rothenburg","displayAddress":"Wahligenstrasse 6, Rothenburg","position":{"formattedAddress":"Wahligenstrasse 6, 6023 Rothenburg, Switzerland","latitude":47.09757870000001,"longitude":8.2437284,"extra":{"googlePlaceId":"ChIJUTqgHj7jj0cRZCOgLAJc6PA","confidence":1,"premise":null,"subpremise":null,"neighborhood":"Rothenburg","establishment":null},"administrativeLevels":{"level2long":"Hochdorf","level2short":"Hochdorf","level1long":"Luzern","level1short":"LU"},"streetNumber":"6","streetName":"Wahligenstrasse","city":"Rothenburg","country":"Switzerland","countryCode":"CH","zipcode":"6023","provider":"google"}}},
{"value":"079","name":"Spreitenbach","storePageUrl":"https://www.ikea.com/ch/de/stores/spreitenbach/","storeAddress":{"address":"Müslistrasse 16","cityName":"Spreitenbach","displayAddress":"Müslistrasse 16, Spreitenbach","position":{"formattedAddress":"Müslistrasse 16, 8957 Spreitenbach, Switzerland","latitude":47.42175109999999,"longitude":8.3756827,"extra":{"googlePlaceId":"ChIJh4gWbHcNkEcREQnl-v7SozA","confidence":1,"premise":null,"subpremise":null,"neighborhood":"Spreitenbach","establishment":null},"administrativeLevels":{"level2long":"Baden","level2short":"Baden","level1long":"Aargau","level1short":"AG"},"streetNumber":"16","streetName":"Müslistrasse","city":"Spreitenbach","country":"Switzerland","countryCode":"CH","zipcode":"8957","provider":"google"}}},
{"value":"078","name":"Aubonne","storePageUrl":"https://www.ikea.com/ch/fr/stores/aubonne/","storeAddress":{"address":"Pré Neuf","cityName":"Aubonne","displayAddress":"Pré Neuf, Aubonne","position":{"formattedAddress":"Pré-Neuf, Aubonne, Switzerland","latitude":46.4762301,"longitude":6.3984189,"extra":{"googlePlaceId":"Eh9QcsOpLU5ldWYsIEF1Ym9ubmUsIFN3aXR6ZXJsYW5kIi4qLAoUChIJ--9UQcFHjEcRI7CMW75wcVYSFAoSCXU0yFXVR4xHEeBBGUCI_wAE","confidence":0.7,"premise":null,"subpremise":null,"neighborhood":"Aubonne","establishment":null},"administrativeLevels":{"level2long":"Morges","level2short":"Morges","level1long":"Vaud","level1short":"VD"},"streetName":"Pré-Neuf","city":"Aubonne","country":"Switzerland","countryCode":"CH","provider":"google"}}},
{"value":"291","name":"Dietlikon","storePageUrl":"https://www.ikea.com/ch/de/stores/dietlikon/","storeAddress":{"address":"Moorstrasse 3","cityName":"Dietlikon","displayAddress":"Moorstrasse 3, Dietlikon","position":{"formattedAddress":"Moorstrasse 3, 8305 Dietlikon, Switzerland","latitude":47.4137377,"longitude":8.6231022,"extra":{"googlePlaceId":"ChIJh9tCE7yhmkcRdww5OHXj_JE","confidence":1,"premise":null,"subpremise":null,"neighborhood":"Dietlikon","establishment":null},"administrativeLevels":{"level2long":"Bülach","level2short":"Bülach","level1long":"Zürich","level1short":"ZH"},"streetNumber":"3","streetName":"Moorstrasse","city":"Dietlikon","country":"Switzerland","countryCode":"CH","zipcode":"8305","provider":"google"}}},
{"value":"101","name":"Grancia","storePageUrl":"https://www.ikea.com/ch/it/stores/grancia/","storeAddress":{"address":"Centro Lugano Sud","cityName":"Grancia","displayAddress":"Centro Lugano Sud, Grancia","position":{"formattedAddress":"Via Cantonale, 6916 Grancia, Switzerland","latitude":45.9730814,"longitude":8.9267232,"extra":{"googlePlaceId":"ChIJbUv0qlUshEcRdmEwGNqVIIk","confidence":0.7,"premise":null,"subpremise":null,"neighborhood":"Grancia","establishment":null},"administrativeLevels":{"level2long":"Lugano","level2short":"Lugano","level1long":"Ticino","level1short":"TI"},"streetName":"Via Cantonale","city":"Grancia","country":"Switzerland","countryCode":"CH","zipcode":"6916","provider":"google"}}},
{"value":"290","name":"Lyssach","storePageUrl":"https://www.ikea.com/ch/de/stores/lyssach/","storeAddress":{"address":"Bernstrasse 25","cityName":"Lyssach","displayAddress":"Bernstrasse 25, Lyssach","position":{"formattedAddress":"Bernstrasse 25, 3421 Lyssach, Switzerland","latitude":47.074293,"longitude":7.569989799999999,"extra":{"googlePlaceId":"ChIJTddofmcujkcRl66_rZMsirM","confidence":1,"premise":null,"subpremise":null,"neighborhood":"Lyssach","establishment":null},"administrativeLevels":{"level2long":"Burgdorf","level2short":"Burgdorf","level1long":"Bern","level1short":"BE"},"streetNumber":"25","streetName":"Bernstrasse","city":"Lyssach","country":"Switzerland","countryCode":"CH","zipcode":"3421","provider":"google"}}},
{"value":"292","name":"Pratteln","storePageUrl":"https://www.ikea.com/ch/de/stores/pratteln/","storeAddress":{"address":"Grüssenweg 21","cityName":"Pratteln 1","displayAddress":"Grüssenweg 21, Pratteln 1","position":{"formattedAddress":"Grüssenweg 21, 4133 Pratteln, Switzerland","latitude":47.5275676,"longitude":7.688833599999999,"extra":{"googlePlaceId":"ChIJBWng90C2kUcRn_xdMjfxNYo","confidence":1,"premise":null,"subpremise":null,"neighborhood":"Pratteln","establishment":null},"administrativeLevels":{"level2long":"Liestal","level2short":"Liestal","level1long":"Basel-Landschaft","level1short":"BL"},"streetNumber":"21","streetName":"Grüssenweg","city":"Pratteln","country":"Switzerland","countryCode":"CH","zipcode":"4133","provider":"google"}}},
{"value":"918","name":"Vernier","storePageUrl":"https://www.ikea.com/ch/fr/stores/vernier/","storeAddress":{"address":"156,Route de Vernier","cityName":"Vernier","displayAddress":"156,Route de Vernier, Vernier","position":{"formattedAddress":"Rte de Vernier 156, 1214 Vernier, Switzerland","latitude":46.2194732,"longitude":6.0944512,"extra":{"googlePlaceId":"ChIJo7tsB15jjEcRMiZYwM31ves","confidence":1,"premise":null,"subpremise":null,"neighborhood":"Vernier","establishment":null},"administrativeLevels":{"level2long":"Genève","level2short":"Genève","level1long":"Genève","level1short":"GE"},"streetNumber":"156","streetName":"Route de Vernier","city":"Vernier","country":"Switzerland","countryCode":"CH","zipcode":"1214","provider":"google"}}}
]