[{"value":"280","name":"Badalona","storePageUrl":"https://www.ikea.com/es/es/stores/barcelona-badalona/","storeAddress":{"address":"Polígono Montigalá, Carrer de Luxemburg S/N","cityName":"Badalona (Barcelona)","displayAddress":"Polígono Montigalá, Carrer de Luxemburg S/N, Badalona (Barcelona)","position":{"formattedAddress":"Montigalà, 08917 Badalona, Barcelona, Spain","latitude":41.45626800000001,"longitude":2.2261163,"extra":{"googlePlaceId":"ChIJd6tjX367pBIRHPaRacvg0JI","confidence":0.7,"premise":null,"subpremise":null,"neighborhood":"Badalona","establishment":"Montigalà"},"administrativeLevels":{"level2long":"Barcelona","level2short":"B","level1long":"Catalunya","level1short":"CT"},"city":"Badalona","country":"Spain","countryCode":"ES","zipcode":"08917","provider":"google"}}},
{"value":"665","name":"Las Rozas (Madrid)","storeAddress":{"address":"Calle Cabo de Rufino Lazaro num. 2","cityName":"Las Rozas- Madrid","displayAddress":"Calle Cabo de Rufino Lazaro num. 2, Las Rozas- Madrid","position":{"formattedAddress":"C. del Cabo Rufino Lázaro, 2, 28232 Las Rozas de Madrid, Madrid, Spain","latitude":40.5017356,"longitude":-3.8879245,"extra":{"googlePlaceId":"ChIJBUIAT0KDQQ0R2UFqVJRudpg","confidence":1,"premise":null,"subpremise":null,"neighborhood":"Las Rozas de Madrid","establishment":null},"administrativeLevels":{"level2long":"Madrid","level2short":"M","level1long":"Comunidad de Madrid","level1short":"MD"},"streetNumber":"2","streetName":"Calle del Cabo Rufino Lázaro","city":"Las Rozas de Madrid","country":"Spain","countryCode":"ES","zipcode":"28232","provider":"google"}}},
{"value":"031","name":"Alcorcón","storePageUrl":"https://www.ikea.com/es/es/stores/madrid-alcorcon/","storeAddress":{"address":"Polígono El Lucero, Avenida Ejército de Tierra 1","cityName":"Alcorcón (Madrid)","displayAddress":"Polígono El Lucero, Avenida Ejército de Tierra 1, Alcorcón (Madrid)","position":{"formattedAddress":"C. del Ejército de Tierra, 1, 28922 Madrid, Spain","latitude":40.3510111,"longitude":-3.8553908,"extra":{"googlePlaceId":"ChIJbVbvCfKOQQ0RRHZI0mm263I","confidence":1,"premise":null,"subpremise":null,"neighborhood":"Madrid","establishment":null},"administrativeLevels":{"level2long":"Madrid","level2short":"M","level1long":"Comunidad de Madrid","level1short":"MD"},"streetNumber":"1","streetName":"Calle del Ejército de Tierra","city":"Madrid","country":"Spain","countryCode":"ES","zipcode":"28922","provider":"google"}}},
{"value":"502","name":"A Coruña","storePageUrl":"https://www.ikea.com/es/es/stores/a-coruna/","storeAddress":{"address":"Carretera Baños Arteixo S/N A Grela","cityName":"A Coruña","displayAddress":"Carretera Baños Arteixo S/N A Grela, A Coruña","position":{"formattedAddress":"Av. de Arteixo, La Coruña, Spain","latitude":43.3496884,"longitude":-8.4190601,"extra":{"googlePlaceId":"EiFBdi4gZGUgQXJ0ZWl4bywgTGEgQ29ydcOxYSwgU3BhaW4iLiosChQKEgkxGtBkknwuDREZn4ts4HB1eRIUChIJTVd08fx8Lg0R7t9cCQ01R2o","confidence":0.7,"premise":null,"subpremise":null,"neighborhood":"La Coruña","establishment":null},"administrativeLevels":{"level2long":"La Coruña","level2short":"C","level1long":"Galicia","level1short":"GA"},"streetName":"Avenida de Arteixo","city":"La Coruña","country":"Spain","countryCode":"ES","provider":"google"}}},
{"value":"12852","name":"Goya (Madrid)","storePageUrl":"https://www.ikea.com/es/es/stores/store-goya/","storeAddress":{"address":"Calle Goya 47","cityName":"Madrid","displayAddress":"Calle Goya 47, Madrid","position":{"formattedAddress":"Calle de Goya, 47, 28001 Madrid, Spain","latitude":40.4253693,"longitude":-3.6823504,"extra":{"googlePlaceId":"ChIJHeeTY70oQg0RA09JhjE23w4","confidence":1,"premise":null,"subpremise":null,"neighborhood":"Madrid","establishment":null},"administrativeLevels":{"level2long":"Madrid","level2short":"M","level1long":"Comunidad de Madrid","level1short":"MD"},"streetNumber":"47","streetName":"Calle de Goya","city":"Madrid","country":"Spain","countryCode":"ES","zipcode":"28001","provider":"google"}}},
{"value":"449","name":"Murcia","storePageUrl":"https://www.ikea.com/es/es/stores/murcia/","storeAddress":{"address":"Avenida Don Juan de Borbón S/N","cityName":"Murcia","displayAddress":"Avenida Don Juan de Borbón S/N, Murcia","position":{"formattedAddress":"Av. Don Juan de Borbón, Murcia, Spain","latitude":38.0017506,"longitude":-1.1285148,"extra":{"googlePlaceId":"EiZBdi4gRG9uIEp1YW4gZGUgQm9yYsOzbiwgTXVyY2lhLCBTcGFpbiIuKiwKFAoSCVPLyb0lgmMNEYbIwrOfeT2KEhQKEgl_jJLV-IFjDRGaq8Q4mxIn1g","confidence":0.7,"premise":null,"subpremise":null,"neighborhood":"Murcia","establishment":null},"administrativeLevels":{"level2long":"Murcia","level2short":"MU","level1long":"Región de Murcia","level1short":"MC"},"streetName":"Avenida Don Juan de Borbón","city":"Murcia","country":"Spain","countryCode":"ES","provider":"google"}}},
{"value":"498","name":"Ensanche de Vallecas","storePageUrl":"https://www.ikea.com/es/es/stores/madrid-ensanche-vallecas/","storeAddress":{"address":"Centro Comercial La Gavia, Calle Alto del Retiro 33","cityName":"Madrid","displayAddress":"Centro Comercial La Gavia, Calle Alto del Retiro 33, Madrid","position":{"formattedAddress":"C. Alto del Retiro, 33, 28031 Madrid, Spain","latitude":40.3697901,"longitude":-3.5958322,"extra":{"googlePlaceId":"ChIJ25T38NskQg0RMOKOB0cE1cc","confidence":1,"premise":null,"subpremise":null,"neighborhood":"Madrid","establishment":null},"administrativeLevels":{"level2long":"Madrid","level2short":"M","level1long":"Comunidad de Madrid","level1short":"MD"},"streetNumber":"33","streetName":"Calle Alto del Retiro","city":"Madrid","country":"Spain","countryCode":"ES","zipcode":"28031","provider":"google"}}},
{"value":"428","name":"Asturias","storePageUrl":"https://www.ikea.com/es/es/stores/asturias/","storeAddress":{"address":"Centro Comercial Intu Asturias, A-66 KM 4.5","cityName":"Pola de Siero (Asturias)","displayAddress":"Centro Comercial Intu Asturias, A-66 KM 4.5, Pola de Siero (Asturias)","position":{"formattedAddress":"Centro Comercial INTU, Autovía Ruta de la Plata, km 4.5, Local 99, 33429 Paredes, Asturias, Spain","latitude":43.3899595,"longitude":-5.8044093,"extra":{"googlePlaceId":"ChIJ3eOy5I2LNg0RUbLW3T-1U9Y","confidence":1,"premise":null,"subpremise":"Local 99","neighborhood":"Paredes","establishment":null},"administrativeLevels":{"level2long":"Asturias","level2short":"O","level1long":"Principado de Asturias","level1short":"AS"},"streetNumber":"km 4.5","streetName":"Autovía Ruta de la Plata","city":"Paredes","country":"Spain","countryCode":"ES","zipcode":"33429","provider":"google"}}},
{"value":"406","name":"Hospitalet (Gran Vía)","storePageUrl":"https://www.ikea.com/es/es/stores/barcelona-hospitalet/","storeAddress":{"address":"Districte Econòmic, Avinguda de la Granvia de l’Hospitalet 115-133","cityName":"L'Hospitalet de Llobregat","displayAddress":"Districte Econòmic, Avinguda de la Granvia de l’Hospitalet 115-133, L'Hospitalet de Llobregat","position":{"formattedAddress":"Avinguda de la Granvia de l’Hospitalet, 115, 133, 08908 L'Hospitalet de Llobregat, Barcelona, Spain","latitude":41.35554080000001,"longitude":2.124118,"extra":{"googlePlaceId":"ChIJjaRwP8eYpBIRn2YJEVDnEPo","confidence":1,"premise":null,"subpremise":"133","neighborhood":"L'Hospitalet de Llobregat","establishment":null},"administrativeLevels":{"level2long":"Barcelona","level2short":"B","level1long":"Cataluña","level1short":"CT"},"streetNumber":"115","streetName":"Avinguda de la Granvia de l’Hospitalet","city":"L'Hospitalet de Llobregat","country":"Spain","countryCode":"ES","zipcode":"08908","provider":"google"}}},
{"value":"277","name":"Jerez","storePageUrl":"https://www.ikea.com/es/es/stores/jerez/","storeAddress":{"address":"Avenida Escandinavia S/N","cityName":"Jerez de la Frontera (Cádiz)","displayAddress":"Avenida Escandinavia S/N, Jerez de la Frontera (Cádiz)","position":{"formattedAddress":"C. Hermandad del Rocío de Jerez, Jerez de la Frontera, Cádiz, Spain","latitude":36.6931921,"longitude":-6.150129,"extra":{"googlePlaceId":"EkVDLiBIZXJtYW5kYWQgZGVsIFJvY8OtbyBkZSBKZXJleiwgSmVyZXogZGUgbGEgRnJvbnRlcmEsIEPDoWRpeiwgU3BhaW4iLiosChQKEgkPLzEmocYNDRF_Z0vQFJuSIxIUChIJn6NESOjGDQ0R6v_Q8_U-rG0","confidence":0.7,"premise":null,"subpremise":null,"neighborhood":"Jerez de la Frontera","establishment":null},"administrativeLevels":{"level2long":"Cádiz","level2short":"CA","level1long":"Andalucía","level1short":"AN"},"streetName":"Calle Hermandad del Rocío de Jerez","city":"Jerez de la Frontera","country":"Spain","countryCode":"ES","provider":"google"}}},
{"value":"276","name":"Barakaldo","storePageUrl":"https://www.ikea.com/es/es/stores/barakaldo/","storeAddress":{"address":"Parque Comercial Megapark, Erribera Etorbidea 7","cityName":"Barakaldo (Bilbao)","displayAddress":"Parque Comercial Megapark, Erribera Etorbidea 7, Barakaldo (Bilbao)","position":{"formattedAddress":"Erribera Etorbidea, 7, 48903 Barakaldo, Bizkaia, Spain","latitude":43.2919089,"longitude":-3.0066025,"extra":{"googlePlaceId":"ChIJLzkEZghaTg0RhSp7Ae7n7vA","confidence":1,"premise":null,"subpremise":null,"neighborhood":"Barakaldo","establishment":null},"administrativeLevels":{"level2long":"Bizkaia","level2short":"BI","level1long":"Euskadi","level1short":"PV"},"streetNumber":"7","streetName":"Erribera Etorbidea","city":"Barakaldo","country":"Spain","countryCode":"ES","zipcode":"48903","provider":"google"}}},
{"value":"304","name":"Málaga","storePageUrl":"https://www.ikea.com/es/es/stores/malaga/","storeAddress":{"address":"Avenida Velázquez 389","cityName":"Málaga","displayAddress":"Avenida Velázquez 389, Málaga","position":{"formattedAddress":"Av. de Velázquez, 389, 29004 Málaga, Spain","latitude":36.6577544,"longitude":-4.4823879,"extra":{"googlePlaceId":"ChIJ5ewSUCn6cg0ROGXb_YRSfUw","confidence":1,"premise":null,"subpremise":null,"neighborhood":"Málaga","establishment":null},"administrativeLevels":{"level2long":"Málaga","level2short":"MA","level1long":"Andalucía","level1short":"AN"},"streetNumber":"389","streetName":"Avenida de Velázquez","city":"Málaga","country":"Spain","countryCode":"ES","zipcode":"29004","provider":"google"}}},
{"value":"030","name":"Valladolid","storePageUrl":"https://www.ikea.com/es/es/stores/valladolid/","storeAddress":{"address":"Calle Me Falta un Tornillo 5","cityName":"Arroyo de la Encomienda (Valladolid)","displayAddress":"Calle Me Falta un Tornillo 5, Arroyo de la Encomienda (Valladolid)","position":{"formattedAddress":"C. Me Falta un Tornillo, 5, 47195 Valladolid, Spain","latitude":41.6274138,"longitude":-4.788065599999999,"extra":{"googlePlaceId":"ChIJ6y1MN7ZtRw0RuMk4Gwas5rg","confidence":1,"premise":null,"subpremise":null,"neighborhood":"Valladolid","establishment":null},"administrativeLevels":{"level2long":"Valladolid","level2short":"VA","level1long":"Castilla y León","level1short":"CL"},"streetNumber":"5","streetName":"Calle Me Falta un Tornillo","city":"Valladolid","country":"Spain","countryCode":"ES","zipcode":"47195","provider":"google"}}},
{"value":"283","name":"Sevilla","storePageUrl":"https://www.ikea.com/es/es/stores/sevilla/","storeAddress":{"address":"Autovía Sevilla-Huelva (Salida 2)","cityName":"Castilleja de la Cuesta (Sevilla)","displayAddress":"Autovía Sevilla-Huelva (Salida 2), Castilleja de la Cuesta (Sevilla)","position":{"formattedAddress":"Pje. de Huelva, 41950 Castilleja de la Cuesta, Sevilla, Spain","latitude":37.3808724,"longitude":-6.0611461,"extra":{"googlePlaceId":"ChIJ0Tba7rZsEg0RlOx0G5B7-e4","confidence":0.7,"premise":null,"subpremise":null,"neighborhood":"Castilleja de la Cuesta","establishment":null},"administrativeLevels":{"level2long":"Sevilla","level2short":"SE","level1long":"Andalucía","level1short":"AN"},"streetName":"Pasaje de Huelva","city":"Castilleja de la Cuesta","country":"Spain","countryCode":"ES","zipcode":"41950","provider":"google"}}},
{"value":"339","name":"Valencia (Alfafar)","storePageUrl":"https://www.ikea.com/es/es/stores/valencia-alfafar/","storeAddress":{"address":"Calle Alqueria Nova 12","cityName":"Alfafar (Valencia)","displayAddress":"Calle Alqueria Nova 12, Alfafar (Valencia)","position":{"formattedAddress":"Edificio, Carrer Alqueria Nova, 12, 46910, Valencia, Spain","latitude":39.4144507,"longitude":-0.386761,"extra":{"googlePlaceId":"ChIJWSQgm9RPYA0RPnKBoI9zW0s","confidence":1,"premise":null,"subpremise":null,"neighborhood":"Valencia","establishment":null},"administrativeLevels":{"level2long":"Valencia","level2short":"V","level1long":"Comunidad Valenciana","level1short":"VC"},"streetNumber":"12","streetName":"Carrer Alqueria Nova","country":"Spain","countryCode":"ES","zipcode":"46910","provider":"google"}}},
{"value":"282","name":"San Sebastián de los Reyes","storePageUrl":"https://www.ikea.com/es/es/stores/madrid-san-sebastian/","storeAddress":{"address":"Parque Comercial Mega Park, Plaza del Comercio S/N","cityName":"San Sebastian de los Reyes (Madrid)","displayAddress":"Parque Comercial Mega Park, Plaza del Comercio S/N, San Sebastian de los Reyes (Madrid)","position":{"formattedAddress":"Av. del Juncal, 15-17, 28703 San Sebastián de los Reyes, Madrid, Spain","latitude":40.54409709999999,"longitude":-3.6119116,"extra":{"googlePlaceId":"ChIJl2HDtQUtQg0R0nfLydXL31Q","confidence":1,"premise":null,"subpremise":null,"neighborhood":"San Sebastián de los Reyes","establishment":null},"administrativeLevels":{"level2long":"Madrid","level2short":"M","level1long":"Comunidad de Madrid","level1short":"MD"},"streetNumber":"15-17","streetName":"Avenida del Juncal","city":"San Sebastián de los Reyes","country":"Spain","countryCode":"ES","zipcode":"28703","provider":"google"}}},
{"value":"171","name":"Sabadell","storePageUrl":"https://www.ikea.com/es/es/stores/barcelona-sabadell/","storeAddress":{"address":"Carrer Serra dels Galliners 70","cityName":"Sabadell (Barcelona)","displayAddress":"Carrer Serra dels Galliners 70, Sabadell (Barcelona)","position":{"formattedAddress":"Carrer de la Serra de Galliners, 70, 08205 Sabadell, Barcelona, Spain","latitude":41.5091018,"longitude":2.1021726,"extra":{"googlePlaceId":"ChIJf732GVuVpBIRenIvigrHqP0","confidence":1,"premise":null,"subpremise":null,"neighborhood":"Sabadell","establishment":null},"administrativeLevels":{"level2long":"Barcelona","level2short":"B","level1long":"Catalunya","level1short":"CT"},"streetNumber":"70","streetName":"Carrer de la Serra de Galliners","city":"Sabadell","country":"Spain","countryCode":"ES","zipcode":"08205","provider":"google"}}},
{"value":"497","name":"Zaragoza","storePageUrl":"https://www.ikea.com/es/es/stores/zaragoza/","storeAddress":{"address":"Centro Comercial Puerto Venecia, Calle Teatro Malibrán 30","cityName":"Zaragoza","displayAddress":"Centro Comercial Puerto Venecia, Calle Teatro Malibrán 30, Zaragoza","position":{"formattedAddress":"C. Teatro Malibrán, 30, 50021 Zaragoza, Spain","latitude":41.6073759,"longitude":-0.891696,"extra":{"googlePlaceId":"ChIJaT_xVlsVWQ0Rq2fuesDYlh4","confidence":1,"premise":null,"subpremise":null,"neighborhood":"Zaragoza","establishment":null},"administrativeLevels":{"level2long":"Zaragoza","level2short":"Z","level1long":"Aragón","level1short":"AR"},"streetNumber":"30","streetName":"Calle Teatro Malibrán","city":"Zaragoza","country":"Spain","countryCode":"ES","zipcode":"50021","provider":"google"}}}
]
