[
{"value":"457","name":"Ancona","storePageUrl":"https://www.ikea.com/it/it/stores/ancona/","storeAddress":{"address":"Aspio Terme","cityName":"CAMERANO","displayAddress":"Aspio Terme, CAMERANO","position":{"formattedAddress":"Aspio Terme AN, Italy","latitude":43.5302517,"longitude":13.5162192,"extra":{"googlePlaceId":"ChIJOdPStLeALRMRCFvWugKPhdA","confidence":0.5,"premise":null,"subpremise":null,"neighborhood":"Aspio Terme","establishment":null},"administrativeLevels":{"level3long":"Osimo","level3short":"Osimo","level2long":"Provincia di Ancona","level2short":"AN","level1long":"Marche","level1short":"Marche"},"city":"Aspio Terme","country":"Italy","countryCode":"IT","provider":"google"}}},
{"value":"232","name":"Genova","storePageUrl":"https://www.ikea.com/it/it/stores/genova/","storeAddress":{"address":"Via Luigi Perini, 5","cityName":"GENOVA","displayAddress":"Via Luigi Perini, 5, GENOVA","position":{"formattedAddress":"Via Luigi Perini, 5, 16152 Genova GE, Italy","latitude":44.423615,"longitude":8.884012499999999,"extra":{"googlePlaceId":"ChIJDejTDylB0xIR5TLzu_2qZdw","confidence":1,"premise":null,"subpremise":null,"neighborhood":"Genova","establishment":null},"administrativeLevels":{"level3long":"Genova","level3short":"Genova","level2long":"Città Metropolitana di Genova","level2short":"GE","level1long":"Liguria","level1short":"Liguria"},"streetNumber":"5","streetName":"Via Luigi Perini","city":"Genova","country":"Italy","countryCode":"IT","zipcode":"16152","provider":"google"}}},
{"value":"355","name":"Padova","storePageUrl":"https://www.ikea.com/it/it/stores/padova/","storeAddress":{"address":"Via Fraccalanza, 1","cityName":"PADOVA","displayAddress":"Via Fraccalanza, 1, PADOVA","position":{"formattedAddress":"Via Sergio Fraccalanza, 1, 35129 Padova PD, Italy","latitude":45.4190347,"longitude":11.9331411,"extra":{"googlePlaceId":"ChIJ9_xlorHafkcRjyPLdVGunvg","confidence":1,"premise":null,"subpremise":null,"neighborhood":"Padova","establishment":null},"administrativeLevels":{"level3long":"Padova","level3short":"Padova","level2long":"Provincia di Padova","level2short":"PD","level1long":"Veneto","level1short":"Veneto"},"streetNumber":"1","streetName":"Via Sergio Fraccalanza","city":"Padova","country":"Italy","countryCode":"IT","zipcode":"35129","provider":"google"}}},
{"value":"314","name":"Pisa","storePageUrl":"https://www.ikea.com/it/it/stores/pisa/","storeAddress":{"address":"Via Rino Ricci, 8","cityName":"PISA","displayAddress":"Via Rino Ricci, 8, PISA","position":{"formattedAddress":"Via Rino Ricci, 8, 56121 Pisa PI, Italy","latitude":43.69253519999999,"longitude":10.383128,"extra":{"googlePlaceId":"ChIJNx9rZdqT1RIRugrCDKzw5rc","confidence":1,"premise":null,"subpremise":null,"neighborhood":"Pisa","establishment":null},"administrativeLevels":{"level3long":"Pisa","level3short":"Pisa","level2long":"Provincia di Pisa","level2short":"PI","level1long":"Toscana","level1short":"Toscana"},"streetNumber":"8","streetName":"Via Rino Ricci","city":"Pisa","country":"Italy","countryCode":"IT","zipcode":"56121","provider":"google"}}},
{"value":"029","name":"Chieti San Giovanni Teatino","storePageUrl":"https://www.ikea.com/it/it/stores/chieti/","storeAddress":{"address":"Via Regolizie, 22","cityName":"SAN GIOVANNI TEATINO","displayAddress":"Via Regolizie, 22, SAN GIOVANNI TEATINO","position":{"formattedAddress":"Via Regolizie, 22, 66020 Zona Industriale Val Pescara CH, Italy","latitude":42.3959752,"longitude":14.1674856,"extra":{"googlePlaceId":"ChIJ8Q0HrumuMRMRBRzeVJ_lzWQ","confidence":1,"premise":null,"subpremise":null,"neighborhood":"Zona Industriale Val Pescara","establishment":null},"administrativeLevels":{"level3long":"San Giovanni teatino","level3short":"San Giovanni teatino","level2long":"Provincia di Chieti","level2short":"CH","level1long":"Abruzzo","level1short":"Abruzzo"},"streetNumber":"22","streetName":"Via Regolizie","city":"Zona Industriale Val Pescara","country":"Italy","countryCode":"IT","zipcode":"66020","provider":"google"}}},
{"value":"353","name":"Napoli Afragola","storePageUrl":"https://www.ikea.com/it/it/stores/napoli-afragola/","storeAddress":{"address":"Via E. Berlinguer 2, Loc. Cantariello","cityName":"AFRAGOLA","displayAddress":"Via E. Berlinguer 2, Loc. Cantariello, AFRAGOLA","position":{"formattedAddress":"Via Enrico Berlinguer, 2, 80021 Afragola NA, Italy","latitude":40.9085235,"longitude":14.3154198,"extra":{"googlePlaceId":"ChIJR2fG-bOpOxMRyn5_4SkTqgk","confidence":1,"premise":null,"subpremise":null,"neighborhood":"Afragola","establishment":null},"administrativeLevels":{"level3long":"Afragola","level3short":"Afragola","level2long":"Città Metropolitana di Napoli","level2short":"NA","level1long":"Campania","level1short":"Campania"},"streetNumber":"2","streetName":"Via Enrico Berlinguer","country":"Italy","countryCode":"IT","zipcode":"80021","provider":"google"}}},
{"value":"295","name":"Milano San Giuliano","storePageUrl":"https://www.ikea.com/it/it/stores/milano-san-giuliano/","storeAddress":{"address":"Via Po, 3","cityName":"SAN GIULIANO","displayAddress":"Via Po, 3, SAN GIULIANO","position":{"formattedAddress":"Via Po, 3, 20098 San Giuliano Milanese MI, Italy","latitude":45.38900839999999,"longitude":9.2614786,"extra":{"googlePlaceId":"ChIJnbV5qPHPhkcRLNOcTf6STZ0","confidence":1,"premise":null,"subpremise":null,"neighborhood":"San Giuliano Milanese","establishment":null},"administrativeLevels":{"level3long":"San Giuliano Milanese","level3short":"San Giuliano Milanese","level2long":"Città Metropolitana di Milano","level2short":"MI","level1long":"Lombardia","level1short":"Lombardia"},"streetNumber":"3","streetName":"Via Po","country":"Italy","countryCode":"IT","zipcode":"20098","provider":"google"}}},
{"value":"354","name":"Brescia Roncadelle","storePageUrl":"https://www.ikea.com/it/it/stores/brescia-roncadelle/","storeAddress":{"address":"Via M. D'Antona e M. Biagi, 9","cityName":"RONCADELLE","displayAddress":"Via M. D'Antona e M. Biagi, 9, RONCADELLE","position":{"formattedAddress":"25030 Roncadelle, Province of Brescia, Italy","latitude":45.5270162,"longitude":10.1601758,"extra":{"googlePlaceId":"ChIJ64fW6QF0gUcRoQvIBy3d-Fg","confidence":0.5,"premise":null,"subpremise":null,"neighborhood":"Roncadelle","establishment":null},"administrativeLevels":{"level3long":"Roncadelle","level3short":"Roncadelle","level2long":"Province of Brescia","level2short":"BS","level1long":"Lombardy","level1short":"Lombardy"},"city":"Roncadelle","country":"Italy","countryCode":"IT","zipcode":"25030","provider":"google"}}},
{"value":"116","name":"Gorizia Villesse","storePageUrl":"https://www.ikea.com/it/it/stores/gorizia-villesse/","storeAddress":{"address":"Località' Maranuz, 1","cityName":"VILLESSE","displayAddress":"Località' Maranuz, 1, VILLESSE","position":{"formattedAddress":"Località Maranuz, 1, 34070 Villesse GO, Italy","latitude":45.8657558,"longitude":13.4328967,"extra":{"googlePlaceId":"ChIJZSHvYOWle0cRPbnWdDXra3M","confidence":1,"premise":null,"subpremise":null,"neighborhood":"Villesse","establishment":null},"administrativeLevels":{"level3long":"Villesse","level3short":"Villesse","level2long":"Provincia di Gorizia","level2short":"GO","level1long":"Friuli-Venezia Giulia","level1short":"Friuli-Venezia Giulia"},"streetNumber":"1","streetName":"Località Maranuz","country":"Italy","countryCode":"IT","zipcode":"34070","provider":"google"}}},
{"value":"111","name":"Rimini","storePageUrl":"https://www.ikea.com/it/it/stores/rimini/","storeAddress":{"address":"Via Tolemaide 140","cityName":"RIMINI","displayAddress":"Via Tolemaide 140, RIMINI","position":{"formattedAddress":"Via Tolemaide, 140, 47922 Rimini RN, Italy","latitude":44.07923599999999,"longitude":12.4756788,"extra":{"googlePlaceId":"ChIJQeVqqdvALBMR1W5FX-mmSk4","confidence":1,"premise":null,"subpremise":null,"neighborhood":"Rimini","establishment":null},"administrativeLevels":{"level3long":"Rimini","level3short":"Rimini","level2long":"Provincia di Rimini","level2short":"RN","level1long":"Emilia-Romagna","level1short":"Emilia-Romagna"},"streetNumber":"140","streetName":"Via Tolemaide","country":"Italy","countryCode":"IT","zipcode":"47922","provider":"google"}}},
{"value":"231","name":"Bologna Casalecchio","storePageUrl":"https://www.ikea.com/it/it/stores/bologna-casalecchio/","storeAddress":{"address":"Via John Lennon, 2","cityName":"CASALECCHIO di RENO","displayAddress":"Via John Lennon, 2, CASALECCHIO di RENO","position":{"formattedAddress":"Via John Lennon, 2, 40033 Zona Industriale Via del Lavoro BO, Italy","latitude":44.4873719,"longitude":11.2495491,"extra":{"googlePlaceId":"EkNWaWEgSm9obiBMZW5ub24sIDIsIDQwMDMzIFpvbmEgSW5kdXN0cmlhbGUgVmlhIGRlbCBMYXZvcm8gQk8sIEl0YWx5IjASLgoUChIJ99R0Z4zWf0cRiU8fRuzGseAQAioUChIJsdxHWozWf0cRJjgtTPK-ngQ","confidence":0.9,"premise":null,"subpremise":null,"neighborhood":"Zona Industriale Via del Lavoro","establishment":null},"administrativeLevels":{"level3long":"Casalecchio di Reno","level3short":"Casalecchio di Reno","level2long":"Città Metropolitana di Bologna","level2short":"BO","level1long":"Emilia-Romagna","level1short":"Emilia-Romagna"},"streetNumber":"2","streetName":"Via John Lennon","city":"Zona Industriale Via del Lavoro","country":"Italy","countryCode":"IT","zipcode":"40033","provider":"google"}}},
{"value":"234","name":"Roma Anagnina","storePageUrl":"https://www.ikea.com/it/it/stores/roma-anagnina/","storeAddress":{"address":"Via Fattoria Rampa, 35","cityName":"ROMA","displayAddress":"Via Fattoria Rampa, 35, ROMA","position":{"formattedAddress":"Via Fattoria Rampa, 35, 00173 Roma RM, Italy","latitude":41.8356675,"longitude":12.5938168,"extra":{"googlePlaceId":"ChIJEZizxkCIJRMRQLFlcu1fOB4","confidence":1,"premise":null,"subpremise":null,"neighborhood":"Roma","establishment":null},"administrativeLevels":{"level3long":"Roma","level3short":"Roma","level2long":"Città Metropolitana di Roma","level2short":"RM","level1long":"Lazio","level1short":"Lazio"},"streetNumber":"35","streetName":"Via Fattoria Rampa","country":"Italy","countryCode":"IT","zipcode":"00173","provider":"google"}}},
{"value":"455","name":"Milano Corsico","storePageUrl":"https://www.ikea.com/it/it/stores/milano-corsico/","storeAddress":{"address":"Nuova via Marchesi, 4","cityName":"CORSICO","displayAddress":"Nuova via Marchesi, 4, CORSICO","position":{"formattedAddress":"Nuova Via Marchesi, 4, 20094 Corsico MI, Italy","latitude":45.4267952,"longitude":9.0797287,"extra":{"googlePlaceId":"ChIJS0DjM4DChkcRAVyhKsV6Oh4","confidence":1,"premise":null,"subpremise":null,"neighborhood":"Corsico","establishment":null},"administrativeLevels":{"level3long":"Corsico","level3short":"Corsico","level2long":"Città Metropolitana di Milano","level2short":"MI","level1long":"Lombardia","level1short":"Lombardia"},"streetNumber":"4","streetName":"Nuova Via Marchesi","city":"Corsico","country":"Italy","countryCode":"IT","zipcode":"20094","provider":"google"}}},
{"value":"098","name":"Catania","storePageUrl":"https://www.ikea.com/it/it/stores/catania/","storeAddress":{"address":"Tangenziale di Catania - Uscita Zona Industriale Nord. Via Passo del Cavaliere","cityName":"CATANIA","displayAddress":"Tangenziale di Catania - Uscita Zona Industriale Nord. Via Passo del Cavaliere, CATANIA","position":{"formattedAddress":"Ikea Via Passo del Cavaliere, Contrada Pelacane, 95121 Catania CT, Italy","latitude":37.4464198,"longitude":15.0362609,"extra":{"googlePlaceId":"ChIJsXnDCSvjExMRVuTE1sRqp6k","confidence":0.7,"premise":null,"subpremise":null,"neighborhood":"Catania","establishment":null},"administrativeLevels":{"level3long":"Catania","level3short":"Catania","level2long":"Città metropolitana di Catania","level2short":"CT","level1long":"Sicilia","level1short":"Sicilia"},"streetName":"Contrada Pelacane","city":"Catania","country":"Italy","countryCode":"IT","zipcode":"95121","provider":"google"}}},
{"value":"356","name":"Bari","storePageUrl":"https://www.ikea.com/it/it/stores/bari/","storeAddress":{"address":"Via Caduti del Lavoro, 3","cityName":"BARI","displayAddress":"Via Caduti del Lavoro, 3, BARI","position":{"formattedAddress":"Via Caduti del Lavoro, 3, 70126 Bari BA, Italy","latitude":41.0882358,"longitude":16.8986029,"extra":{"googlePlaceId":"ChIJ0e4AY8XpRxMRh5FHSlP_WmM","confidence":1,"premise":null,"subpremise":null,"neighborhood":"Bari","establishment":null},"administrativeLevels":{"level3long":"Bari","level3short":"Bari","level2long":"Città Metropolitana di Bari","level2short":"BA","level1long":"Puglia","level1short":"Puglia"},"streetNumber":"3","streetName":"Via Caduti del Lavoro","city":"Bari","country":"Italy","countryCode":"IT","zipcode":"70126","provider":"google"}}},
{"value":"352","name":"Firenze Sesto Fiorentino","storePageUrl":"https://www.ikea.com/it/it/stores/firenze/","storeAddress":{"address":"Via Francesco Redi, 1","cityName":"SESTO FIORENTINO","displayAddress":"Via Francesco Redi, 1, SESTO FIORENTINO","position":{"formattedAddress":"IKEA Firenze, Via Francesco Redi, 1, 50019 Osmannoro FI, Italy","latitude":43.80791869999999,"longitude":11.1870437,"extra":{"googlePlaceId":"ChIJE7j2eQtXKhMRK1Uj8JglhbE","confidence":1,"premise":"IKEA Firenze","subpremise":null,"neighborhood":"Osmannoro","establishment":null},"administrativeLevels":{"level3long":"Sesto Fiorentino","level3short":"Sesto Fiorentino","level2long":"Città Metropolitana di Firenze","level2short":"FI","level1long":"Toscana","level1short":"Toscana"},"streetNumber":"1","streetName":"Via Francesco Redi","city":"Osmannoro","country":"Italy","countryCode":"IT","zipcode":"50019","provider":"google"}}},
{"value":"456","name":"Torino Collegno","storePageUrl":"https://www.ikea.com/it/it/stores/torino-collegno/","storeAddress":{"address":"Viale Svezia, 1","cityName":"COLLEGNO","displayAddress":"Viale Svezia, 1, COLLEGNO","position":{"formattedAddress":"Viale Svezia, 1, 10093 Collegno TO, Italy","latitude":45.0980468,"longitude":7.5814502,"extra":{"googlePlaceId":"ChIJE_Mq7LBriEcRFgZR2y4taBM","confidence":1,"premise":null,"subpremise":null,"neighborhood":"Collegno","establishment":null},"administrativeLevels":{"level3long":"Collegno","level3short":"Collegno","level2long":"Città Metropolitana di Torino","level2short":"TO","level1long":"Piemonte","level1short":"Piemonte"},"streetNumber":"1","streetName":"Viale Svezia","country":"Italy","countryCode":"IT","zipcode":"10093","provider":"google"}}},
{"value":"233","name":"Milano Carugate","storePageUrl":"https://www.ikea.com/it/it/stores/milano-carugate/","storeAddress":{"address":"Via dell'Artigianato, 7","cityName":"CARUGATE","displayAddress":"Via dell'Artigianato, 7, CARUGATE","position":{"formattedAddress":"Via dell'Artigianato, 7, 20061 Carugate MI, Italy","latitude":45.5499224,"longitude":9.331859699999999,"extra":{"googlePlaceId":"ChIJ99293Ly3hkcR_6QmjUAxucY","confidence":1,"premise":null,"subpremise":null,"neighborhood":"Carugate","establishment":null},"administrativeLevels":{"level3long":"Carugate","level3short":"Carugate","level2long":"Città Metropolitana di Milano","level2short":"MI","level1long":"Lombardia","level1short":"Lombardia"},"streetNumber":"7","streetName":"Via dell'Artigianato","city":"Carugate","country":"Italy","countryCode":"IT","zipcode":"20061","provider":"google"}}},
{"value":"303","name":"Parma","storePageUrl":"https://www.ikea.com/it/it/stores/parma/","storeAddress":{"address":"Largo Benito Jacovitti, 11/A","cityName":"PARMA","displayAddress":"Largo Benito Jacovitti, 11/A, PARMA","position":{"formattedAddress":"Largo Benito Jacovitti, 11/A, 43122 Parma PR, Italy","latitude":44.8307852,"longitude":10.3639314,"extra":{"googlePlaceId":"ChIJ19HA-QBAgEcRJEYvql3Opmg","confidence":1,"premise":null,"subpremise":null,"neighborhood":"Parma","establishment":null},"administrativeLevels":{"level3long":"Parma","level3short":"Parma","level2long":"Provincia di Parma","level2short":"PR","level1long":"Emilia-Romagna","level1short":"Emilia-Romagna"},"streetNumber":"11/A","streetName":"Largo Benito Jacovitti","city":"Parma","country":"Italy","countryCode":"IT","zipcode":"43122","provider":"google"}}},
{"value":"458","name":"Salerno Baronissi","storePageUrl":"https://www.ikea.com/it/it/stores/salerno-baronissi/","storeAddress":{"address":"Via Salvatore Allende - Località Orignano","cityName":"BARONISSI","displayAddress":"Via Salvatore Allende - Località Orignano, BARONISSI","position":{"formattedAddress":"Orignano-via Bellini 3/D, 84081 Baronissi SA, Italy","latitude":40.755866,"longitude":14.7902304,"extra":{"googlePlaceId":"ChIJJcfR-VDEOxMReiXi6buOze8","confidence":0.7,"premise":null,"subpremise":null,"neighborhood":"Baronissi","establishment":"Orignano-via Bellini 3/D"},"administrativeLevels":{"level3long":"Baronissi","level3short":"Baronissi","level2long":"Provincia di Salerno","level2short":"SA","level1long":"Campania","level1short":"Campania"},"city":"Baronissi","country":"Italy","countryCode":"IT","zipcode":"84081","provider":"google"}}},
{"value":"427","name":"Roma Porta di Roma","storePageUrl":"https://www.ikea.com/it/it/stores/roma-porta-di-roma/","storeAddress":{"address":"Via Casale Redicicoli, 501","cityName":"ROMA","displayAddress":"Via Casale Redicicoli, 501, ROMA","position":{"formattedAddress":"IKEA Porta di Roma, Via Casale Redicicoli, 501, 00139 Roma RM, Italy","latitude":41.9726388,"longitude":12.5416347,"extra":{"googlePlaceId":"ChIJm_Pn1jFkLxMRavMs4APCT-w","confidence":1,"premise":"IKEA Porta di Roma","subpremise":null,"neighborhood":"Roma","establishment":null},"administrativeLevels":{"level3long":"Roma","level3short":"Roma","level2long":"Città Metropolitana di Roma","level2short":"RM","level1long":"Lazio","level1short":"Lazio"},"streetNumber":"501","streetName":"Via Casale Redicicoli","country":"Italy","countryCode":"IT","zipcode":"00139","provider":"google"}}}
]