[{"value":"113","name":"Belfast","storePageUrl":"https://www.ikea.com/gb/en/stores/belfast/","storeAddress":{"address":"Holywood Exchange, 306 Airport RD W","cityName":"Belfast","displayAddress":"Holywood Exchange, 306 Airport RD W, Belfast","position":{"formattedAddress":"Holywood Exchange, Airport Rd W, Belfast BT3 9EJ, UK","latitude":54.6239757,"longitude":-5.8604065,"extra":{"googlePlaceId":"ChIJ4fSnLR8KYUgRgITQ_nfr0aY","confidence":0.7,"premise":"Holywood Exchange","subpremise":null,"neighborhood":"Belfast","establishment":null},"administrativeLevels":{"level2long":"Belfast","level2short":"Belfast","level1long":"Northern Ireland","level1short":"Northern Ireland"},"streetName":"Airport Road West","city":"Belfast","country":"United Kingdom","countryCode":"GB","zipcode":"BT3 9EJ","provider":"google"}}},
{"value":"265","name":"Edinburgh","storePageUrl":"https://www.ikea.com/gb/en/stores/edinburgh/","storeAddress":{"address":"Costkea way, Loanhead","cityName":"Edinburgh, Midlothian","displayAddress":"Costkea way, Loanhead, Edinburgh, Midlothian","position":{"formattedAddress":"Costkea Way, Loanhead EH20, UK","latitude":55.8801958,"longitude":-3.1667245,"extra":{"googlePlaceId":"ChIJ2Zxu7Fi_h0gRkR8fppVdWhA","confidence":0.7,"premise":null,"subpremise":null,"neighborhood":"Midlothian","establishment":null},"administrativeLevels":{"level2long":"Midlothian","level2short":"Midlothian","level1long":"Scotland","level1short":"Scotland"},"streetName":"Costkea Way","city":"Loanhead","country":"United Kingdom","countryCode":"GB","zipcode":"EH20","provider":"google"}}},
{"value":"186","name":"Manchester","storePageUrl":"https://www.ikea.com/gb/en/stores/manchester/","storeAddress":{"address":"110 Wellington Road","cityName":"Greater Manchester","displayAddress":"110 Wellington Road, Greater Manchester","position":{"formattedAddress":"110 Wellington Rd, Manchester M14, UK","latitude":53.4387544,"longitude":-2.2261436,"extra":{"googlePlaceId":"EiUxMTAgV2VsbGluZ3RvbiBSZCwgTWFuY2hlc3RlciBNMTQsIFVLIjASLgoUChIJR71BCzmye0gRuHorUD4ZCs4QbioUChIJh-cpnDmye0gRn3X21d7VZho","confidence":0.9,"premise":null,"subpremise":null,"neighborhood":"Greater Manchester","establishment":null},"administrativeLevels":{"level2long":"Greater Manchester","level2short":"Greater Manchester","level1long":"England","level1short":"England"},"streetNumber":"110","streetName":"Wellington Road","city":"Manchester","country":"United Kingdom","countryCode":"GB","zipcode":"M14","provider":"google"}}},
{"value":"266","name":"Glasgow","storePageUrl":"https://www.ikea.com/gb/en/stores/glasgow/","storeAddress":{"address":"99 Kings Inch Drive","cityName":"Glasgow","displayAddress":"99 Kings Inch Drive, Glasgow","position":{"formattedAddress":"99 Kings Inch Dr, Glasgow G51 4FB, UK","latitude":55.8695563,"longitude":-4.3585389,"extra":{"googlePlaceId":"ChIJmyNa809PiEgRkoinEfROKrw","confidence":1,"premise":null,"subpremise":null,"neighborhood":"Renfrewshire","establishment":null},"administrativeLevels":{"level2long":"Renfrewshire","level2short":"Renfrewshire","level1long":"Scotland","level1short":"Scotland"},"streetNumber":"99","streetName":"Kings Inch Drive","city":"Glasgow","country":"United Kingdom","countryCode":"GB","zipcode":"G51 4FB","provider":"google"}}},
{"value":"144","name":"Croydon","storePageUrl":"https://www.ikea.com/gb/en/stores/croydon/","storeAddress":{"address":"Access via Hesterman Way","cityName":"Croydon","displayAddress":"Access via Hesterman Way, Croydon","position":{"formattedAddress":"Hesterman Way, Croydon CR0, UK","latitude":51.3802383,"longitude":-0.1257455,"extra":{"googlePlaceId":"ChIJSz8zWRoHdkgRGe6HgNVIo-U","confidence":0.7,"premise":null,"subpremise":null,"neighborhood":"Greater London","establishment":null},"administrativeLevels":{"level2long":"Greater London","level2short":"Greater London","level1long":"England","level1short":"England"},"streetName":"Hesterman Way","city":"Croydon","country":"United Kingdom","countryCode":"GB","zipcode":"CR0","provider":"google"}}},
{"value":"267","name":"Cardiff","storePageUrl":"https://www.ikea.com/gb/en/stores/cardiff/","storeAddress":{"address":"Ferry Road, Grangetown","cityName":"Cardiff","displayAddress":"Ferry Road, Grangetown, Cardiff","position":{"formattedAddress":"Ferry Rd, Cardiff CF11, UK","latitude":51.4574419,"longitude":-3.1844624,"extra":{"googlePlaceId":"ChIJU5t221sDbkgRFcsUpJmcv1k","confidence":0.7,"premise":null,"subpremise":null,"neighborhood":"Cardiff","establishment":null},"administrativeLevels":{"level2long":"Cardiff","level2short":"Cardiff","level1long":"Wales","level1short":"Wales"},"streetName":"Ferry Road","city":"Cardiff","country":"United Kingdom","countryCode":"GB","zipcode":"CF11","provider":"google"}}},
{"value":"264","name":"Bristol","storePageUrl":"https://www.ikea.com/gb/en/stores/bristol/","storeAddress":{"address":"Eastgate Road, Eastville","cityName":"Bristol","displayAddress":"Eastgate Road, Eastville, Bristol","position":{"formattedAddress":"Eastgate Rd, Eastville, Bristol, UK","latitude":51.4741142,"longitude":-2.5664936,"extra":{"googlePlaceId":"EiNFYXN0Z2F0ZSBSZCwgRWFzdHZpbGxlLCBCcmlzdG9sLCBVSyIuKiwKFAoSCfXKgXg7jnFIEVE8tZd1QHY4EhQKEgnlIETWJI5xSBGVh_XmAOnDrw","confidence":0.7,"premise":null,"subpremise":null,"neighborhood":"Eastville","establishment":null},"administrativeLevels":{"level2long":"Bristol City","level2short":"Bristol City","level1long":"England","level1short":"England"},"streetName":"Eastgate Road","city":"Bristol","country":"United Kingdom","countryCode":"GB","provider":"google"}}},
{"value":"125","name":"Southampton","storePageUrl":"https://www.ikea.com/gb/en/stores/southampton/","storeAddress":{"address":"West Quay Road","cityName":"Southhampton","displayAddress":"West Quay Road, Southhampton","position":{"formattedAddress":"W Quay Rd, Southampton, UK","latitude":50.9023048,"longitude":-1.4123124,"extra":{"googlePlaceId":"ChIJsbQdGLl2dEgRwnn3KLGpeTw","confidence":0.7,"premise":null,"subpremise":null,"neighborhood":"Southampton","establishment":null},"administrativeLevels":{"level2long":"Southampton","level2short":"Southampton","level1long":"England","level1short":"England"},"streetName":"West Quay Road","city":"Southampton","country":"United Kingdom","countryCode":"GB","provider":"google"}}},
{"value":"142","name":"Birmingham","storePageUrl":"https://www.ikea.com/gb/en/stores/birmingham/","storeAddress":{"address":"Park Lane, Wednesbury","cityName":"West Midlands","displayAddress":"Park Lane, Wednesbury, West Midlands","position":{"formattedAddress":"Park Ln, Wednesbury WS10, UK","latitude":52.5664094,"longitude":-2.0159242,"extra":{"googlePlaceId":"ChIJpZduSPKYcEgRUrazALByVZ0","confidence":0.7,"premise":null,"subpremise":null,"neighborhood":"West Midlands","establishment":null},"administrativeLevels":{"level2long":"West Midlands","level2short":"West Midlands","level1long":"England","level1short":"England"},"streetName":"Park Lane","city":"Wednesbury","country":"United Kingdom","countryCode":"GB","zipcode":"WS10","provider":"google"}}},
{"value":"185","name":"Milton Keynes","storePageUrl":"https://www.ikea.com/gb/en/stores/milton-keynes/","storeAddress":{"address":"Goslington, Off Bletcham Way","cityName":"Milton Keynes","displayAddress":"Goslington, Off Bletcham Way, Milton Keynes","position":{"formattedAddress":"Bletcham Way, Milton Keynes, UK","latitude":52.0102539,"longitude":-0.7063082,"extra":{"googlePlaceId":"ChIJfVnrSc5UdkgRC6MqA8MAmvc","confidence":0.7,"premise":null,"subpremise":null,"neighborhood":"Milton Keynes","establishment":null},"administrativeLevels":{"level2long":"Milton Keynes","level2short":"Milton Keynes","level1long":"England","level1short":"England"},"streetName":"Bletcham Way","city":"Milton Keynes","country":"United Kingdom","countryCode":"GB","provider":"google"}}},
{"value":"261","name":"Leeds","storePageUrl":"https://www.ikea.com/gb/en/stores/leeds/","storeAddress":{"address":"Holden Ing Way","cityName":"Birstall, Batley","displayAddress":"Holden Ing Way, Birstall, Batley","position":{"formattedAddress":"Holden Ing Way, Birstall, Batley WF17, UK","latitude":53.7446887,"longitude":-1.6471569,"extra":{"googlePlaceId":"ChIJN69ehPRfeUgR3AKKvSYuhxI","confidence":0.7,"premise":null,"subpremise":null,"neighborhood":"Birstall","establishment":null},"administrativeLevels":{"level2long":"West Yorkshire","level2short":"West Yorkshire","level1long":"England","level1short":"England"},"streetName":"Holden Ing Way","city":"Batley","country":"United Kingdom","countryCode":"GB","zipcode":"WF17","provider":"google"}}},
{"value":"140","name":"Warrington","storePageUrl":"https://www.ikea.com/gb/en/stores/warrington/","storeAddress":{"address":"910 Europe Boulevard","cityName":"Warrington","displayAddress":"910 Europe Boulevard, Warrington","position":{"formattedAddress":"IKEA, 910 Europa Blvd, Westbrook, Warrington WA5 7TY, UK","latitude":53.4176267,"longitude":-2.6277748,"extra":{"googlePlaceId":"ChIJl11niKcDe0gR2C4waqZ-kdQ","confidence":1,"premise":"IKEA","subpremise":null,"neighborhood":"Westbrook","establishment":null},"administrativeLevels":{"level2long":"Warrington","level2short":"Warrington","level1long":"England","level1short":"England"},"streetNumber":"910","streetName":"Europa Boulevard","city":"Warrington","country":"United Kingdom","countryCode":"GB","zipcode":"WA5 7TY","provider":"google"}}},
{"value":"263","name":"Nottingham","storePageUrl":"https://www.ikea.com/gb/en/stores/nottingham/","storeAddress":{"address":"Ikea Way, Giltbrook","cityName":"Nottingham","displayAddress":"Ikea Way, Giltbrook, Nottingham","position":{"formattedAddress":"Ikea Way, Giltbrook, Nottingham NG16, UK","latitude":53.0026528,"longitude":-1.2799124,"extra":{"googlePlaceId":"ChIJBWhUbXPreUgRT-jNNOj6so0","confidence":0.7,"premise":null,"subpremise":null,"neighborhood":"Giltbrook","establishment":null},"administrativeLevels":{"level2long":"Nottinghamshire","level2short":"Nottinghamshire","level1long":"England","level1short":"England"},"streetName":"Ikea Way","city":"Nottingham","country":"United Kingdom","countryCode":"GB","zipcode":"NG16","provider":"google"}}},
{"value":"567","name":"Greenwich","storePageUrl":"https://www.ikea.com/gb/en/stores/greenwich/","storeAddress":{"address":"55-57 Bugsby's Way","cityName":"London, Greenwich","displayAddress":"55-57 Bugsby's Way, London, Greenwich","position":{"formattedAddress":"55 Bugsby's Way, London SE10 0QJ, UK","latitude":51.48938649999999,"longitude":0.015384,"extra":{"googlePlaceId":"ChIJ6bJfYTyo2EcR2gxwjVihsco","confidence":0.7,"premise":null,"subpremise":null,"neighborhood":"Greater London","establishment":null},"administrativeLevels":{"level2long":"Greater London","level2short":"Greater London","level1long":"England","level1short":"England"},"streetNumber":"55","streetName":"Bugsby's Way","city":"London","country":"United Kingdom","countryCode":"GB","zipcode":"SE10 0QJ","provider":"google"}}},
{"value":"461","name":"Reading","storePageUrl":"https://www.ikea.com/gb/en/stores/reading/","storeAddress":{"address":"Pincents Kiln Industrial Pk, Theale","cityName":"Reading","displayAddress":"Pincents Kiln Industrial Pk, Theale, Reading","position":{"formattedAddress":"Pincents Kiln Industrial Park, Calcot, Pincents Kiln, Reading RG31 7SD, UK","latitude":51.4423654,"longitude":-1.0656763,"extra":{"googlePlaceId":"ChIJE782Tj-ZdkgRLYykkRzJqJk","confidence":1,"premise":"Pincents Kiln Industrial Park","subpremise":null,"neighborhood":"Calcot","establishment":null},"administrativeLevels":{"level2long":"Berkshire","level2short":"Berkshire","level1long":"England","level1short":"England"},"city":"Reading","country":"United Kingdom","countryCode":"GB","zipcode":"RG31 7SD","provider":"google"}}},
{"value":"141","name":"Wembley","storePageUrl":"https://www.ikea.com/gb/en/stores/wembley/","storeAddress":{"address":"2 Drury Way","cityName":"London","displayAddress":"2 Drury Way, London","position":{"formattedAddress":"2 Drury Wy., London NW10, UK","latitude":51.55382789999999,"longitude":-0.2594842,"extra":{"googlePlaceId":"ChIJGz34eZ8RdkgRFUoIeoF7_1A","confidence":1,"premise":null,"subpremise":null,"neighborhood":"Greater London","establishment":null},"administrativeLevels":{"level2long":"Greater London","level2short":"Greater London","level1long":"England","level1short":"England"},"streetNumber":"2","streetName":"Drury Way","city":"London","country":"United Kingdom","countryCode":"GB","zipcode":"NW10","provider":"google"}}},
{"value":"143","name":"Gateshead","storePageUrl":"https://www.ikea.com/gb/en/stores/gateshead/","storeAddress":{"address":"Metro Park West","cityName":"Gateshead, Tyne & Wear","displayAddress":"Metro Park West, Gateshead, Tyne & Wear","position":{"formattedAddress":"Metro Park West, Gateshead NE11 9XS, UK","latitude":54.9618082,"longitude":-1.678008,"extra":{"googlePlaceId":"ChIJy90I35x3fkgRU9adI-lbRNM","confidence":1,"premise":"Metro Park West","subpremise":null,"neighborhood":"Tyne and Wear","establishment":null},"administrativeLevels":{"level2long":"Tyne and Wear","level2short":"Tyne and Wear","level1long":"England","level1short":"England"},"city":"Gateshead","country":"United Kingdom","countryCode":"GB","zipcode":"NE11 9XS","provider":"google"}}},
{"value":"255","name":"Tottenham","storePageUrl":"https://www.ikea.com/gb/en/stores/tottenham/","storeAddress":{"address":"Glover Drive","cityName":"Edmonton","displayAddress":"Glover Drive, Edmonton","position":{"formattedAddress":"Glover Dr, London N18 3HF, UK","latitude":51.6092921,"longitude":-0.0488541,"extra":{"googlePlaceId":"Eh1HbG92ZXIgRHIsIExvbmRvbiBOMTggM0hGLCBVSyIuKiwKFAoSCXOQ6e6HHnZIEcuk2iqZo_cLEhQKEgkdlm378h52SBELSbRLBc0tLg","confidence":0.7,"premise":null,"subpremise":null,"neighborhood":"Greater London","establishment":null},"administrativeLevels":{"level2long":"Greater London","level2short":"Greater London","level1long":"England","level1short":"England"},"streetName":"Glover Drive","city":"London","country":"United Kingdom","countryCode":"GB","zipcode":"N18 3HF","provider":"google"}}},
{"value":"262","name":"Lakeside","storePageUrl":"https://www.ikea.com/gb/en/stores/lakeside/","storeAddress":{"address":"Heron Way, Lakeside","cityName":"Essex","displayAddress":"Heron Way, Lakeside, Essex","position":{"latitude": "51.4810722", "longitude": "0.2831053"}}},
{"value":"642","name":"Hammersmith","storeAddress":{"address":"King Street Hammersmith","cityName":"London","displayAddress":"King Street Hammersmith, London","position":{"formattedAddress":"King St, London, UK","latitude":51.4928916,"longitude":-0.2349408,"extra":{"googlePlaceId":"ChIJ_ej_tEoOdkgRKgae-olDo9A","confidence":0.7,"premise":null,"subpremise":null,"neighborhood":"Greater London","establishment":null},"administrativeLevels":{"level2long":"Greater London","level2short":"Greater London","level1long":"England","level1short":"England"},"streetName":"King Street","city":"London","country":"United Kingdom","countryCode":"GB","provider":"google"}}},
{"value":"519","name":"Sheffield","storePageUrl":"https://www.ikea.com/gb/en/stores/sheffield/","storeAddress":{"address":"Sheffield Road","cityName":"Tinsley","displayAddress":"Sheffield Road, Tinsley","position":{"formattedAddress":"Sheffield Rd, Tinsley, Sheffield, UK","latitude":53.4139039,"longitude":-1.4010341,"extra":{"googlePlaceId":"EiRTaGVmZmllbGQgUmQsIFRpbnNsZXksIFNoZWZmaWVsZCwgVUsiLiosChQKEgltTPMtr3d5SBH2kls_U4ALtBIUChIJ9UFYa5J3eUgRSKD07O-bEmQ","confidence":0.7,"premise":null,"subpremise":null,"neighborhood":"Tinsley","establishment":null},"administrativeLevels":{"level2long":"South Yorkshire","level2short":"South Yorkshire","level1long":"England","level1short":"England"},"streetName":"Sheffield Road","city":"Sheffield","country":"United Kingdom","countryCode":"GB","provider":"google"}}},
{"value":"548","name":"Exeter","storePageUrl":"https://www.ikea.com/gb/en/stores/exeter/","storeAddress":{"address":"1 IKEA WAY, off Newcourt Way","cityName":"Exeter","displayAddress":"1 IKEA WAY, off Newcourt Way, Exeter","position":{"formattedAddress":"Newcourt Way, Exeter EX2, UK","latitude":50.7058061,"longitude":-3.4788316,"extra":{"googlePlaceId":"ChIJJ9yqr16hbUgRnA67bFBBly8","confidence":0.7,"premise":null,"subpremise":null,"neighborhood":"Devon","establishment":null},"administrativeLevels":{"level2long":"Devon","level2short":"Devon","level1long":"England","level1short":"England"},"streetName":"Newcourt Way","city":"Exeter","country":"United Kingdom","countryCode":"GB","zipcode":"EX2","provider":"google"}}}
]